[
  {
    "station_id": "00766c92c9518a5d",
    "lat": 56.0273116,
    "lon": 24.4023974,
    "display_name": "39198, Lietuva",
    "query": "Viada LT, Brazdigalos k. 1, 39198, Lietuva",
    "geocode_updated_at": "2026-06-12T10:08:53.442Z",
    "status": "resolved"
  },
  {
    "station_id": "009d82999aabd1b4",
    "lat": 55.5948632,
    "lon": 26.4565986,
    "display_name": "Energetikų g. 23B, 31107 Visaginas, Lietuva",
    "query": "Viada, Taikos pr. 23B, Visaginas, Lietuva",
    "geocode_updated_at": "2026-04-10T18:07:06.589Z",
    "status": "resolved"
  },
  {
    "station_id": "00d67077c92a9f32",
    "lat": 56.0485244,
    "lon": 24.3845234,
    "display_name": "Brazdigalos g., Pasvalys, 39171 Pasvalio r. sav., Lietuva",
    "query": "Viada, Brazdigalos k. 1, Lietuva",
    "geocode_updated_at": "2026-04-10T18:07:07.008Z",
    "status": "resolved"
  },
  {
    "station_id": "010b7f900dacb112",
    "lat": 54.8949458,
    "lon": 23.9858512,
    "display_name": "R. Kalantos g. 27, 52302 Kaunas, Lietuva",
    "query": "Neste Lietuva, Kaunas, R. Kalantos g. 27, 52303, Lietuva",
    "geocode_updated_at": "2026-06-12T10:08:53.911Z",
    "status": "resolved"
  },
  {
    "station_id": "011a1635041c7bba",
    "lat": 54.6585353,
    "lon": 25.2663467,
    "display_name": "Prūsų g. 26-a, 02176 Vilnius, Lietuva",
    "query": "Circle K Lietuva, Vilnius, Prūsų g. 26A, 02154, Lietuva",
    "geocode_updated_at": "2026-06-12T10:08:54.349Z",
    "status": "resolved"
  },
  {
    "station_id": "016ef5cacf73c8ad",
    "lat": 54.9564873,
    "lon": 23.9047242,
    "display_name": "Muitinės g. 2, 54359 Domeikava, Lietuva",
    "query": "Saurida, Domeikava Muitinės g. 2, 54359, Lietuva",
    "geocode_updated_at": "2026-06-10T09:47:03.164Z",
    "status": "resolved"
  },
  {
    "station_id": "016f4f46372d87ad",
    "lat": 54.59726250000001,
    "lon": 25.3149594,
    "display_name": "Jašiūnų gatvė 2, Kineliai, 13255 Vilniaus r. sav., Lietuva",
    "query": "Jozita, Rudamina, Jašiūnų g. 2, 13255, Lietuva",
    "geocode_updated_at": "2026-06-12T10:08:54.795Z",
    "status": "resolved"
  },
  {
    "station_id": "017c3143297d785f",
    "lat": 55.5409184,
    "lon": 25.1352032,
    "display_name": "Piliakalnio g. 9, 29109 Anykščiai, Lietuva",
    "query": "Viada LT, Anykščiai, Piliakalnio g. 9, 29109, Lietuva",
    "geocode_updated_at": "2026-06-12T10:08:55.255Z",
    "status": "resolved"
  },
  {
    "station_id": "018a6e8f657a992b",
    "lat": 54.8833509,
    "lon": 23.8936201,
    "display_name": "Veiverių g. 124B, 46282 Kaunas, Lietuva",
    "query": "Viada LT, Kaunas, Veiverių g. 124B, 46282, Lietuva",
    "geocode_updated_at": "2026-06-12T10:08:55.712Z",
    "status": "resolved"
  },
  {
    "station_id": "0199cd7875b9eb18",
    "lat": 55.905374,
    "lon": 23.2601549,
    "display_name": "Gegužių g. 26, 78348 Šiauliai, Lietuva",
    "query": "Viada, Gegužių g. 26, Šiauliai, Lietuva",
    "geocode_updated_at": "2026-04-10T18:07:07.409Z",
    "status": "resolved"
  },
  {
    "station_id": "01b2ed2e0c16b240",
    "lat": 56.00058259999999,
    "lon": 22.2472638,
    "display_name": "Mažeikių g. 7A, Telšiai, 87101 Telšių r. sav., Lietuva",
    "query": "Gazimpeksas, Mažeikių g. 7A, Telšiai, Lietuva",
    "geocode_updated_at": "2026-04-10T18:07:07.808Z",
    "status": "resolved"
  },
  {
    "station_id": "02237f1f8b97750c",
    "lat": 55.9405911,
    "lon": 23.3261904,
    "display_name": "Tilžės g. 223, 76200 Šiauliai, Lietuva",
    "query": "Apsaga, Šiauliai, Tilžės g. 223, 76200, Lietuva",
    "geocode_updated_at": "2026-06-12T10:08:56.142Z",
    "status": "resolved"
  },
  {
    "station_id": "025d3d6c09cb56c9",
    "lat": 54.8753312,
    "lon": 23.9114672,
    "display_name": "Europos pr. 43, 46329 Kaunas, Lietuva",
    "query": "Neste Lietuva, Kaunas, Europos pr. 43, 46329, Lietuva",
    "geocode_updated_at": "2026-06-12T10:08:56.496Z",
    "status": "resolved"
  },
  {
    "station_id": "02694b0ce0025c29",
    "lat": 54.57624759999999,
    "lon": 23.371213,
    "display_name": "Kauno g. 130, 68230 Marijampolė, Lietuva",
    "query": "Circle K, Kauno g. 130, Marijampolė, Lietuva",
    "geocode_updated_at": "2026-04-10T18:07:08.207Z",
    "status": "resolved"
  },
  {
    "station_id": "02a65a6fef21f9ec",
    "lat": 55.7303046,
    "lon": 21.1247832,
    "display_name": "H. Manto g. 96, 92295 Klaipėda, Lietuva",
    "query": "Circle K Lietuva, Klaipėda, H. Manto g. 96, 92295, Lietuva",
    "geocode_updated_at": "2026-06-12T10:08:56.925Z",
    "status": "resolved"
  },
  {
    "station_id": "02a956d7a48f4a1c",
    "lat": 54.7214876,
    "lon": 25.2951922,
    "display_name": "Verkių g. 52, 09109 Vilnius, Lietuva",
    "query": "Viada, Verkių g. 52, Vilnius, Lietuva",
    "geocode_updated_at": "2026-04-10T18:07:08.586Z",
    "status": "resolved"
  },
  {
    "station_id": "02cd9761859597b9",
    "lat": 54.93220359999999,
    "lon": 23.9179497,
    "display_name": "Jonavos g. 292B, Kaunas, 44131 Kauno m. sav., Lietuva",
    "query": "Emsi, Kaunas, Jonavos g. 292B, 44131, Lietuva",
    "geocode_updated_at": "2026-06-12T10:08:57.373Z",
    "status": "resolved"
  },
  {
    "station_id": "037d0e8f2f372525",
    "lat": 55.6568656,
    "lon": 21.1837445,
    "display_name": "Jūrininkų pr. 29, 95225 Klaipėda, Lietuva",
    "query": "Saurida, Klaipėda Jūrininkų pr. 29, Lietuva",
    "geocode_updated_at": "2026-04-10T18:07:08.973Z",
    "status": "resolved"
  },
  {
    "station_id": "038b741a23487877",
    "lat": 54.7012617,
    "lon": 25.2038673,
    "display_name": "Pilaitės pr. 28, 06264 Vilnius, Lietuva",
    "query": "Viada LT, Vilnius, Pilaitės pr. 28, 06264, Lietuva",
    "geocode_updated_at": "2026-06-12T10:08:57.800Z",
    "status": "resolved"
  },
  {
    "station_id": "03a6b62d40d6bd24",
    "lat": 54.9526983,
    "lon": 23.0832755,
    "display_name": "Kauno g. 68-k, Girėnai, 71129 Šakių r. sav., Lietuva",
    "query": "GM Manufacturing Lithuania, Girėnų k., Kauno g. 68, 71129, Lietuva",
    "geocode_updated_at": "2026-06-12T10:08:58.150Z",
    "status": "resolved"
  },
  {
    "station_id": "03f0a07bad0d4217",
    "lat": 55.26530529999999,
    "lon": 22.3088319,
    "display_name": "Dariaus ir Girėno g. 130A, 72194 Tauragė, Lietuva",
    "query": "Neste Lietuva, Tauragė, Dariaus ir Girėno g. 130A, 72194, Lietuva",
    "geocode_updated_at": "2026-06-12T10:08:58.606Z",
    "status": "resolved"
  },
  {
    "station_id": "04013bdd09ef4141",
    "lat": 55.24824719999999,
    "lon": 22.3029362,
    "display_name": "Gedimino g. 47, 72294 Tauragė, Lietuva",
    "query": "Circle K Lietuva, Tauragė, Gedimino g. 47, 72294, Lietuva",
    "geocode_updated_at": "2026-06-12T10:08:58.957Z",
    "status": "resolved"
  },
  {
    "station_id": "0410d8030769f3af",
    "lat": 55.5942351,
    "lon": 23.1799162,
    "display_name": "Žemaitės g. 14, 86490 Tytuvėnai, Lietuva",
    "query": "Antivis, Tytuvėnai, Žemaitės g. 14, 86490, Lietuva",
    "geocode_updated_at": "2026-06-12T10:08:59.306Z",
    "status": "resolved"
  },
  {
    "station_id": "047fb18c09c9d059",
    "lat": 54.64106390000001,
    "lon": 25.1841823,
    "display_name": "Savanorių pr. 225, Vilnius, 02300 Vilniaus m. sav., Lietuva",
    "query": "Emsi, Savanorių 225, Vilnius, Lietuva",
    "geocode_updated_at": "2026-04-10T18:07:09.362Z",
    "status": "resolved"
  },
  {
    "station_id": "04967b40089147cc",
    "lat": 54.8169209,
    "lon": 24.4365679,
    "display_name": "Kauno pl. 5, 56236 Triliškės, Lietuva",
    "query": "Baltic Petroleum, Triliškių k., Kauno pl. 5, 56179, Lietuva",
    "geocode_updated_at": "2026-06-12T10:08:59.635Z",
    "status": "resolved"
  },
  {
    "station_id": "04d94ebf1f37efb7",
    "lat": 55.51183690000001,
    "lon": 25.5999859,
    "display_name": "Palijoniškio g. 1, Utena, 28183 Utenos r. sav., Lietuva",
    "query": "Alauša, Utena, Palijoniškio g. 1, 28183, Lietuva",
    "geocode_updated_at": "2026-06-12T10:08:59.984Z",
    "status": "resolved"
  },
  {
    "station_id": "04da36512ac63f78",
    "lat": 54.5780726,
    "lon": 23.377749,
    "display_name": "Statybininkų g. 8b, 68108 Marijampolė, Lietuva",
    "query": "Saurida, Marijampolė Statybininkų g. 8, Lietuva",
    "geocode_updated_at": "2026-04-10T18:07:09.741Z",
    "status": "resolved"
  },
  {
    "station_id": "050733fe5edde741",
    "lat": 54.7201868,
    "lon": 25.2462417,
    "display_name": "Ukmergės g. 231, 07156 Vilnius, Lietuva",
    "query": "Circle K Lietuva, Vilnius, Ukmergės g. 231, 07156, Lietuva",
    "geocode_updated_at": "2026-06-12T10:09:00.324Z",
    "status": "resolved"
  },
  {
    "station_id": "05233abef9cf47eb",
    "lat": 53.990177,
    "lon": 24.005703,
    "display_name": "Gardino g. 98, Druskininkai, 66225 Druskininkų sav., Lietuva",
    "query": "Tomega, Druskininkai, Gardino g. 98, 66225, Lietuva",
    "geocode_updated_at": "2026-06-12T10:09:00.662Z",
    "status": "resolved"
  },
  {
    "station_id": "052ba1f87a69214b",
    "lat": 54.64812269999999,
    "lon": 25.2124476,
    "display_name": "Savanorių pr. 187, 02300 Vilnius, Lietuva",
    "query": "Neste Lietuva, Savanorių pr. 187, Vilnius, Lietuva",
    "geocode_updated_at": "2026-04-10T18:07:10.180Z",
    "status": "resolved"
  },
  {
    "station_id": "054b14031f9e5f8d",
    "lat": 54.70312509999999,
    "lon": 25.2577053,
    "display_name": "Ukmergės g. 130, 08100 Vilnius, Lietuva",
    "query": "Jozita, Ukmergės g. 130, Vilnius, Lietuva",
    "geocode_updated_at": "2026-04-10T18:07:10.557Z",
    "status": "resolved"
  },
  {
    "station_id": "0597dd23f777d845",
    "lat": 55.712477,
    "lon": 21.3824442,
    "display_name": "Klaipėdos g., 96157 Gargždai, Lietuva",
    "query": "Trevena, Klaipėdos g. 39, Gargždai, Lietuva",
    "geocode_updated_at": "2026-04-10T18:07:10.938Z",
    "status": "resolved"
  },
  {
    "station_id": "05a73867c389c4d1",
    "lat": 55.269167,
    "lon": 24.8102715,
    "display_name": "Vytauto g. 131, Dukstyna, 20185 Ukmergės r. sav., Lietuva",
    "query": "Viada LT, Dukstynos k., Vytauto g. 131, 20186, Lietuva",
    "geocode_updated_at": "2026-06-12T10:09:01.000Z",
    "status": "resolved"
  },
  {
    "station_id": "05ca6ef50a726774",
    "lat": 54.2394586,
    "lon": 23.8231816,
    "display_name": "Algirdo gatvė 35A, 67227 Seirijai, Lietuva",
    "query": "Melkasta, Algirdo g. 35A, Seirijų mstl., Lietuva",
    "geocode_updated_at": "2026-04-10T18:07:11.319Z",
    "status": "resolved"
  },
  {
    "station_id": "05cabe10c33a59aa",
    "lat": 55.4946231,
    "lon": 25.6457182,
    "display_name": "Pramonės g. 16, 28119 Utena, Lietuva",
    "query": "Utentra, Pramonės g. 16, Utena, Lietuva",
    "geocode_updated_at": "2026-04-10T18:07:11.703Z",
    "status": "resolved"
  },
  {
    "station_id": "064694066f0f03ee",
    "lat": 56.1639383,
    "lon": 22.1015481,
    "display_name": "Gardenio g. 39, Užežerė, 89382 Mažeikių r. sav., Lietuva",
    "query": "Baltic Petroleum, Užežerės k., Gardenio g. 39, 89382, Lietuva",
    "geocode_updated_at": "2026-06-12T10:09:01.341Z",
    "status": "resolved"
  },
  {
    "station_id": "0650454cfb481710",
    "lat": 55.0334423,
    "lon": 24.9747671,
    "display_name": "Paširvinčio g. 1-k, 19129 Kabalda, Lietuva",
    "query": "Alauša, Paširvio g. 1, Paširvinčio k., Lietuva",
    "geocode_updated_at": "2026-04-10T18:07:12.099Z",
    "status": "resolved"
  },
  {
    "station_id": "0652df484a4c8763",
    "lat": 55.7042051,
    "lon": 21.1604795,
    "display_name": "Tilžės g. 56A, 91110 Klaipėda, Lietuva",
    "query": "Circle K Lietuva, Klaipėda, Tilžės g. 56A, 91110, Lietuva",
    "geocode_updated_at": "2026-06-12T10:09:01.678Z",
    "status": "resolved"
  },
  {
    "station_id": "067fa9a55d1ab5c4",
    "lat": 54.9139667,
    "lon": 23.9067962,
    "display_name": "48400, Varnių g. 50, Kaunas, 48401 Kauno m. sav., Lietuva",
    "query": "Orlen, Varnių g. 50, Kaunas, Lietuva",
    "geocode_updated_at": "2026-04-10T18:07:12.479Z",
    "status": "resolved"
  },
  {
    "station_id": "0686eac11292010b",
    "lat": 55.521168,
    "lon": 22.3660295,
    "display_name": "Katyčių k., 75493 Šilalės r., Lietuva",
    "query": "Neste Lietuva, Katyčių k., Šilalės r., Lietuva",
    "geocode_updated_at": "2026-04-10T18:07:12.859Z",
    "status": "resolved"
  },
  {
    "station_id": "06e14a66821ca931",
    "lat": 54.6068557,
    "lon": 23.4002143,
    "display_name": "Plytinės g. 2, 68103 Puskelniai, Lietuva",
    "query": "Alauša, Plytinės g. 2, Puskelnių k., Lietuva",
    "geocode_updated_at": "2026-04-10T18:07:13.241Z",
    "status": "resolved"
  },
  {
    "station_id": "06f22c14bb0c4293",
    "lat": 54.7016459,
    "lon": 23.518932,
    "display_name": "Ąžuolų Būda, Kazlų Rūdos sav., Lietuva",
    "query": "Viada, Ąžuolų Būdos k., Lietuva",
    "geocode_updated_at": "2026-04-10T18:08:22.633Z",
    "status": "resolved"
  },
  {
    "station_id": "07061cf8a4044e63",
    "lat": 55.4918774,
    "lon": 22.1992506,
    "display_name": "Rytinio kelio g. 19, 75133 Šilalė, Lietuva",
    "query": "Saurida, Šilalė, Rytinio kelio g. 19, 75133, Lietuva",
    "geocode_updated_at": "2026-06-12T10:09:02.013Z",
    "status": "resolved"
  },
  {
    "station_id": "0783f7e225b3f740",
    "lat": 55.169438,
    "lon": 23.881275,
    "display_name": "Lietuva",
    "query": "Circle K, Pikelių k. 1, Lietuva",
    "geocode_updated_at": "2026-04-10T18:07:13.600Z",
    "status": "resolved"
  },
  {
    "station_id": "07bba141a77da837",
    "lat": 55.6844017,
    "lon": 21.1495982,
    "display_name": "Minijos g. 119, 93231 Klaipėda, Lietuva",
    "query": "Neste Lietuva, Klaipėda, Minijos g. 119, 93231, Lietuva",
    "geocode_updated_at": "2026-06-12T10:09:02.354Z",
    "status": "resolved"
  },
  {
    "station_id": "07d96d03404617fb",
    "lat": 55.929282,
    "lon": 23.2943456,
    "display_name": "Dubijos g. 18, 77172 Šiauliai, Lietuva",
    "query": "Neste Lietuva, Šiauliai, Dubijos g. 18A, 77172, Lietuva",
    "geocode_updated_at": "2026-06-12T10:09:02.682Z",
    "status": "resolved"
  },
  {
    "station_id": "0808d78d9c50da19",
    "lat": 55.89887909999999,
    "lon": 23.2715912,
    "display_name": "Sembos g., 78347 Šiauliai, Lietuva",
    "query": "Emsi, Sembos g.5, Šiauliai, Lietuva",
    "geocode_updated_at": "2026-04-10T18:07:14.017Z",
    "status": "resolved"
  },
  {
    "station_id": "081dd7fe02093305",
    "lat": 54.43522669999999,
    "lon": 24.0150607,
    "display_name": "Verslo g. 2-k, Alytus, 62175 Alytaus m. sav., Lietuva",
    "query": "Skulas, Verslo g. 2, Virbališkių k., Lietuva",
    "geocode_updated_at": "2026-04-10T18:07:14.448Z",
    "status": "resolved"
  },
  {
    "station_id": "08201f42389f12f6",
    "lat": 54.2183837,
    "lon": 23.5391373,
    "display_name": "67171, Lietuva",
    "query": "Circle K Lietuva, Nekrūnų k. 1, 67171, Lietuva",
    "geocode_updated_at": "2026-06-12T10:09:03.023Z",
    "status": "resolved"
  },
  {
    "station_id": "083ac5fc9c5699a5",
    "lat": 55.897804,
    "lon": 23.3520359,
    "display_name": "Bačiūnų g. 12A, 77109 Šiauliai, Lietuva",
    "query": "Junasa, Bačiūnų g. 12a, Lietuva",
    "geocode_updated_at": "2026-04-10T18:07:14.821Z",
    "status": "resolved"
  },
  {
    "station_id": "08745995a3bed73f",
    "lat": 55.96576700000001,
    "lon": 23.8795271,
    "display_name": "83169 Kuosiškiai, Lietuva",
    "query": "Jozita, Kuosiškių k. 4, 83169, Lietuva",
    "geocode_updated_at": "2026-06-12T10:09:03.348Z",
    "status": "resolved"
  },
  {
    "station_id": "0875566b43341ee0",
    "lat": 54.4139887,
    "lon": 24.0100205,
    "display_name": "Naujoji g. 27, 62175 Alytus, Lietuva",
    "query": "Viada LT, Alytus, Naujoji g. 27, 62175, Lietuva",
    "geocode_updated_at": "2026-06-12T10:09:03.708Z",
    "status": "resolved"
  },
  {
    "station_id": "088765b8ce82c14b",
    "lat": 54.8560023,
    "lon": 23.9462992,
    "display_name": "Plento g. 1-k, 45398 Kaunas, Lietuva",
    "query": "Boost Petrol, Kuršukų k., Plento g. 1, 86120, Lietuva",
    "geocode_updated_at": "2026-06-10T09:47:03.564Z",
    "status": "resolved"
  },
  {
    "station_id": "088b7be46139cf12",
    "lat": 56.3050462,
    "lon": 22.3509815,
    "display_name": "M. Daukšos g. 17, Mažeikiai, 89234 Mažeikių r. sav., Lietuva",
    "query": "Baltic Petroleum, Mažeikiai, M. Daukšos g. 17, 89234, Lietuva",
    "geocode_updated_at": "2026-06-12T10:09:04.047Z",
    "status": "resolved"
  },
  {
    "station_id": "088dbeed4a1c085a",
    "lat": 54.75485200000001,
    "lon": 25.271406,
    "display_name": "Molėtų pl. 8, Vilnius, 08409 Vilniaus m. sav., Lietuva",
    "query": "Neste Lietuva, Vilnius, Molėtų pl. 8, 08426, Lietuva",
    "geocode_updated_at": "2026-06-12T10:09:04.421Z",
    "status": "resolved"
  },
  {
    "station_id": "08a5f4c9b554ea40",
    "lat": 55.258658,
    "lon": 23.4940544,
    "display_name": "Žemaičių g. 34, 60255 Ariogala, Lietuva",
    "query": "Emsi, Žemaičių g. 34, Ariogala, Lietuva",
    "geocode_updated_at": "2026-04-10T18:07:15.202Z",
    "status": "resolved"
  },
  {
    "station_id": "08b03124ccc6ac27",
    "lat": 55.9565283,
    "lon": 22.3011931,
    "display_name": "Telšių gatvė 2 b, Rainiai, 88401 Telšių r. sav., Lietuva",
    "query": "Eniris, Telšių g. 2 b, Rainių k., Lietuva",
    "geocode_updated_at": "2026-04-10T18:07:15.764Z",
    "status": "resolved"
  },
  {
    "station_id": "091e7fba95e57dff",
    "lat": 55.24417769999999,
    "lon": 24.7497895,
    "display_name": "Kauno g. 37, 20120 Ukmergė, Lietuva",
    "query": "Alauša, Ukmergė, Kauno g. 37, 20120, Lietuva",
    "geocode_updated_at": "2026-06-12T10:09:04.758Z",
    "status": "resolved"
  },
  {
    "station_id": "094a963bac44b82c",
    "lat": 54.3870642,
    "lon": 24.0263264,
    "display_name": "Santaikos g. 34A, 62123 Alytus, Lietuva",
    "query": "Neste Lietuva, Alytus, Santaikos g. 34A, 62123, Lietuva",
    "geocode_updated_at": "2026-06-12T10:09:05.103Z",
    "status": "resolved"
  },
  {
    "station_id": "096ad3bc07fe518b",
    "lat": 54.5518206,
    "lon": 23.3483569,
    "display_name": "Marijampolė, Marijampolės sav., Lietuva",
    "query": "Circle K Lietuva, Marijampolė, J. Dailidės g. 10, 68307, Lietuva",
    "geocode_updated_at": "2026-06-12T10:09:05.503Z",
    "status": "resolved"
  },
  {
    "station_id": "097be907d39dd561",
    "lat": 55.82751349999999,
    "lon": 21.1850567,
    "display_name": "Klaipėdos gatvė 1a, 96330 Kretingalė, Lietuva",
    "query": "Viada, Klaipėdos g. 1A, Kretingalė, Lietuva",
    "geocode_updated_at": "2026-04-10T18:07:16.151Z",
    "status": "resolved"
  },
  {
    "station_id": "0985209cc50b6a77",
    "lat": 55.7317038,
    "lon": 24.3035251,
    "display_name": "Klaipėdos g. 162D, 35193 Panevėžys, Lietuva",
    "query": "Orlen Baltics Retail, Panevėžys, Klaipėdos g. 162 D, 37372, Lietuva",
    "geocode_updated_at": "2026-06-12T10:09:05.852Z",
    "status": "resolved"
  },
  {
    "station_id": "099c76b0372e1f40",
    "lat": 55.7395662,
    "lon": 25.8524845,
    "display_name": "V. Striogos g. 4A, Padustėlis, 32312 Zarasų r. sav., Lietuva",
    "query": "Baltic Petroleum, V. Striogos g. 4A, Padustėlis, Lietuva",
    "geocode_updated_at": "2026-04-10T18:07:16.743Z",
    "status": "resolved"
  },
  {
    "station_id": "09fc501e973d3c69",
    "lat": 54.5840427,
    "lon": 23.3603293,
    "display_name": "Gėlyno g. 25, Marijampolė, 68229 Marijampolės sav., Lietuva",
    "query": "Topgas, Gėlyno g.25, Marijampolė, Lietuva",
    "geocode_updated_at": "2026-04-13T09:44:03.153Z",
    "status": "resolved"
  },
  {
    "station_id": "0a26bcde7e352bbf",
    "lat": 56.2980762,
    "lon": 22.8851585,
    "display_name": "Pašakarnių g. 1, 85271 Pašakarniai, Lietuva",
    "query": "Saurida, Pašakarnių km. Pašakarnių g. 1, 85271, Lietuva",
    "geocode_updated_at": "2026-06-10T09:47:03.946Z",
    "status": "resolved"
  },
  {
    "station_id": "0a2e6fb8ad951c79",
    "lat": 54.623046,
    "lon": 25.110115,
    "display_name": "J. Tiškevičiaus g. 24, 02231 Vilnius, Lietuva",
    "query": "Circle K Lietuva, Vilnius, J. Tiškevičiaus g. 24, 02231, Lietuva",
    "geocode_updated_at": "2026-06-12T10:09:06.197Z",
    "status": "resolved"
  },
  {
    "station_id": "0a3bf1df71aef637",
    "lat": 54.8513254,
    "lon": 23.8431269,
    "display_name": "Kalvarijos g. 138, Kaunas, 46403 Kauno m. sav., Lietuva",
    "query": "Orlen Baltics Retail, Kaunas, Kalvarijos g. 138, 46403, Lietuva",
    "geocode_updated_at": "2026-06-12T10:09:06.535Z",
    "status": "resolved"
  },
  {
    "station_id": "0a440a9c43f2b8f6",
    "lat": 56.3171981,
    "lon": 22.8849126,
    "display_name": "V. Kudirkos g. 18a, 85171 Naujoji Akmenė, Lietuva",
    "query": "Saurida, Naujoji Akmenė, V. Kudirkos g. 18A, 85171, Lietuva",
    "geocode_updated_at": "2026-06-12T10:09:06.881Z",
    "status": "resolved"
  },
  {
    "station_id": "0a6c3cf3d1c8fe40",
    "lat": 55.9485775,
    "lon": 25.8142995,
    "display_name": "Dariaus ir Girėno g. 36, Obeliai, 42209 Rokiškio r. sav., Lietuva",
    "query": "Alauša, Obeliai, Dariaus ir Girėno g. 36, 42209, Lietuva",
    "geocode_updated_at": "2026-06-12T10:09:07.217Z",
    "status": "resolved"
  },
  {
    "station_id": "0a6dc6e0d468d5a9",
    "lat": 55.4970468,
    "lon": 25.6306757,
    "display_name": "Metalo g. 8, 28216 Utena, Lietuva",
    "query": "Viada LT, Utena, Metalo g. 8, 28216, Lietuva",
    "geocode_updated_at": "2026-06-12T10:09:07.558Z",
    "status": "resolved"
  },
  {
    "station_id": "0a8876d5dff0c71d",
    "lat": 54.8809236,
    "lon": 24.0098105,
    "display_name": "T. Masiulio g. 22B, 52447 Kaunas, Lietuva",
    "query": "Viada, T. Masiulio g. 22B, Kaunas, Lietuva",
    "geocode_updated_at": "2026-04-10T18:07:17.120Z",
    "status": "resolved"
  },
  {
    "station_id": "0a950dba4f7b352a",
    "lat": 55.0991583,
    "lon": 24.3159346,
    "display_name": "Plento g. 24, Gudžioniai, 55462 Jonavos r. sav., Lietuva",
    "query": "Baltic Petroleum, Plento g. 24, Gudžionių k., Lietuva",
    "geocode_updated_at": "2026-04-14T11:34:26.267Z",
    "status": "resolved"
  },
  {
    "station_id": "0ab609a1bc0f8ba9",
    "lat": 54.8930908,
    "lon": 23.9957727,
    "display_name": "R. Kalantos g. 68, 35189 Kaunas, Lietuva",
    "query": "Circle K, R. Kalantos g. 68, Kaunas, Lietuva",
    "geocode_updated_at": "2026-04-10T18:07:17.494Z",
    "status": "resolved"
  },
  {
    "station_id": "0abd7bdcf47e5a2e",
    "lat": 55.4946231,
    "lon": 25.6457182,
    "display_name": "Pramonės g. 16, 28119 Utena, Lietuva",
    "query": "Utentra, Utena, Pramonės g. 16, 28119, Lietuva",
    "geocode_updated_at": "2026-06-12T10:09:07.900Z",
    "status": "resolved"
  },
  {
    "station_id": "0b2654ea6819a833",
    "lat": 54.4113596,
    "lon": 24.0677738,
    "display_name": "Miškininkų g. 7, 62121 Alytus, Lietuva",
    "query": "Saurida, Alytus Miškininkų g. 7, Lietuva",
    "geocode_updated_at": "2026-04-10T18:07:17.903Z",
    "status": "resolved"
  },
  {
    "station_id": "0b568f2667d0019e",
    "lat": 54.378997,
    "lon": 23.528544,
    "display_name": "Alytaus g 59, Krosna, 67443 Lazdijų r. sav., Lietuva",
    "query": "Eniris, Alytaus g. 59, Krosnos k., 67443, Lietuva",
    "geocode_updated_at": "2026-06-10T09:47:04.325Z",
    "status": "resolved"
  },
  {
    "station_id": "0b77d54d6a5ec1aa",
    "lat": 54.5654291,
    "lon": 23.3577446,
    "display_name": "Kauno g. 68, Marijampolė, 68245 Marijampolės sav., Lietuva",
    "query": "GM Circle K, Kauno g. 68, Girėnų k., Lietuva",
    "geocode_updated_at": "2026-04-10T18:07:18.290Z",
    "status": "resolved"
  },
  {
    "station_id": "0b9abe4cf23e13b3",
    "lat": 54.6589026,
    "lon": 25.1607483,
    "display_name": "Gariūnų g. 45, 02300 Vilnius, Lietuva",
    "query": "Circle K Lietuva, Vilnius, Gariūnų g. 45, 02300, Lietuva",
    "geocode_updated_at": "2026-06-12T10:09:08.250Z",
    "status": "resolved"
  },
  {
    "station_id": "0b9af145b7485c00",
    "lat": 54.6808099,
    "lon": 25.2076559,
    "display_name": "Architektų g. 130, 04216 Vilnius, Lietuva",
    "query": "Neste Lietuva, Vilnius, Architektų g. 130, 04216, Lietuva",
    "geocode_updated_at": "2026-06-12T10:09:08.601Z",
    "status": "resolved"
  },
  {
    "station_id": "0bd96f38bedbb1e0",
    "lat": 54.55435019999999,
    "lon": 23.3623629,
    "display_name": "Geležinkelio g. 5, 68127 Marijampolė, Lietuva",
    "query": "Viada LT, Marijampolė, Geležinkelio g. 5, 68305, Lietuva",
    "geocode_updated_at": "2026-06-12T10:09:08.949Z",
    "status": "resolved"
  },
  {
    "station_id": "0bfe5d5e15ca687a",
    "lat": 54.70750409999999,
    "lon": 24.9959914,
    "display_name": "Sausių g. 2-k, 21401 Sausių k., Lietuva",
    "query": "Emsi, Sausių k., Sausių g. 2, 21401, Lietuva",
    "geocode_updated_at": "2026-06-12T10:09:09.302Z",
    "status": "resolved"
  },
  {
    "station_id": "0bfe73c68ca31b29",
    "lat": 55.0768044,
    "lon": 22.7520303,
    "display_name": "Muitinės g. 34A, 74106 Jurbarkas, Lietuva",
    "query": "GM Circle K, Muitinės g. 34A, Jurbarkas, Lietuva",
    "geocode_updated_at": "2026-04-10T18:07:18.687Z",
    "status": "resolved"
  },
  {
    "station_id": "0c0f472f68977887",
    "lat": 54.8990214,
    "lon": 23.960112,
    "display_name": "K. Baršausko g. 57, 51423 Kaunas, Lietuva",
    "query": "Circle K, K. Baršausko g. 57, Kaunas, Lietuva",
    "geocode_updated_at": "2026-04-10T18:07:19.070Z",
    "status": "resolved"
  },
  {
    "station_id": "0c18655fb1e0429e",
    "lat": 55.169438,
    "lon": 23.881275,
    "display_name": "Lietuva",
    "query": "Viada LT, Juodalaukių k. 2, 32104, Lietuva",
    "geocode_updated_at": "2026-06-12T10:09:09.621Z",
    "status": "resolved"
  },
  {
    "station_id": "0c5a3905f84c685a",
    "lat": 55.2669923,
    "lon": 22.3098326,
    "display_name": "Dariaus ir Girėno g. 83A, 72192 Tauragė, Lietuva",
    "query": "Circle K, Dariaus ir Girėno g. 83A, Tauragė, Lietuva",
    "geocode_updated_at": "2026-04-10T18:07:19.496Z",
    "status": "resolved"
  },
  {
    "station_id": "0c8bef68ba7c7e91",
    "lat": 55.0720215,
    "lon": 24.2947884,
    "display_name": "Taurostos g. 16a, 55195 Jonava, Lietuva",
    "query": "Žibalas, Jonava, Taurostos g. 16A, 55195, Lietuva",
    "geocode_updated_at": "2026-06-12T10:09:09.957Z",
    "status": "resolved"
  },
  {
    "station_id": "0cabb74d326b2883",
    "lat": 56.05598639999999,
    "lon": 24.4072762,
    "display_name": "Vilniaus g. 50, 39177 Pasvalys, Lietuva",
    "query": "Viada, Vilniaus g. 50, Pasvalys, Lietuva",
    "geocode_updated_at": "2026-04-10T18:07:19.889Z",
    "status": "resolved"
  },
  {
    "station_id": "0cbe58a646024d1e",
    "lat": 54.6466659,
    "lon": 23.9300584,
    "display_name": "Kauno pl. 18, Ignacava, 59149 Prienų r. sav., Lietuva",
    "query": "Saurida, Ignacavos k., Kauno pl. 18, 59149, Lietuva",
    "geocode_updated_at": "2026-06-12T10:09:10.294Z",
    "status": "resolved"
  },
  {
    "station_id": "0cd36ee474e1f38e",
    "lat": 54.6068557,
    "lon": 23.4002143,
    "display_name": "Plytinės g. 2, 68103 Puskelniai, Lietuva",
    "query": "Alauša, Puskelnių k., Plytinės g. 2, 68103, Lietuva",
    "geocode_updated_at": "2026-06-12T10:09:10.643Z",
    "status": "resolved"
  },
  {
    "station_id": "0ce458a154257406",
    "lat": 55.8146338,
    "lon": 23.5531175,
    "display_name": "Gedimino g. 50c, 82168 Radviliškis, Lietuva",
    "query": "Saurida, Radviliškis Gedimino g. 50C, 82482, Lietuva",
    "geocode_updated_at": "2026-06-10T09:47:04.703Z",
    "status": "resolved"
  },
  {
    "station_id": "0ce4e3cc1cb04e25",
    "lat": 54.91451,
    "lon": 23.900269,
    "display_name": "Varnių g. 46, 35189 Kaunas, Lietuva",
    "query": "Circle K, Varnių g. 46, Kaunas, Lietuva",
    "geocode_updated_at": "2026-04-10T18:07:20.271Z",
    "status": "resolved"
  },
  {
    "station_id": "0d1e23b10ead3f57",
    "lat": 54.87856710000001,
    "lon": 23.9341377,
    "display_name": "A. Juozapavičiaus pr. 90, 45267 Kaunas, Lietuva",
    "query": "Viada LT, Kaunas, A. Juozapavičiaus pr. 90, 45267, Lietuva",
    "geocode_updated_at": "2026-06-12T10:09:10.988Z",
    "status": "resolved"
  },
  {
    "station_id": "0d2d38105b17cdd8",
    "lat": 55.6844017,
    "lon": 21.1495982,
    "display_name": "Minijos g. 119, 93231 Klaipėda, Lietuva",
    "query": "Neste Lietuva, Minijos g. 119, Klaipėda, Lietuva",
    "geocode_updated_at": "2026-04-10T18:07:20.647Z",
    "status": "resolved"
  },
  {
    "station_id": "0d464a7a8f67f54f",
    "lat": 54.9139571,
    "lon": 23.9066087,
    "display_name": "Varnių g. 50, 48401 Kaunas, Lietuva",
    "query": "Orlen Baltics Retail, Kaunas, Varnių g. 50, 48401, Lietuva",
    "geocode_updated_at": "2026-06-12T10:09:11.325Z",
    "status": "resolved"
  },
  {
    "station_id": "0d55192a1e08d012",
    "lat": 54.6772199,
    "lon": 25.255633,
    "display_name": "Kedrų g. 2, 03159 Vilnius, Lietuva",
    "query": "Neste Lietuva, Vilnius, Kedrų g. 2, 03159, Lietuva",
    "geocode_updated_at": "2026-06-12T10:09:11.671Z",
    "status": "resolved"
  },
  {
    "station_id": "0d5944b94f3d294d",
    "lat": 55.71383520000001,
    "lon": 21.3866118,
    "display_name": "Kretingos Plento g. 1, 96105 Gargždai, Lietuva",
    "query": "Trevena, Gargždai, Kretingos pl. 1, 96105, Lietuva",
    "geocode_updated_at": "2026-06-12T10:09:12.000Z",
    "status": "resolved"
  },
  {
    "station_id": "0d7b84e003aeda3f",
    "lat": 55.7029618,
    "lon": 21.1652354,
    "display_name": "Šilutės pl. 5C, 91109 Klaipėda, Lietuva",
    "query": "Neste Lietuva, Klaipėda, Šilutės pl. 5C, 91109, Lietuva",
    "geocode_updated_at": "2026-06-12T10:09:12.342Z",
    "status": "resolved"
  },
  {
    "station_id": "0d8102d8084bdb9f",
    "lat": 55.2213962,
    "lon": 25.4362181,
    "display_name": "Aplinkkelio g. 165, 33134 k, Lietuva",
    "query": "Neste Lietuva, Molėtai, Aplinkkelio g. 165, 33134, Lietuva",
    "geocode_updated_at": "2026-06-12T10:09:12.667Z",
    "status": "resolved"
  },
  {
    "station_id": "0d818bbb23f60afd",
    "lat": 54.8664899,
    "lon": 23.8893329,
    "display_name": "Veiverių g. 117, 46354 Kaunas, Lietuva",
    "query": "Viada, Veiverių g. 117, Kaunas, Lietuva",
    "geocode_updated_at": "2026-04-10T18:07:21.018Z",
    "status": "resolved"
  },
  {
    "station_id": "0d9fc1734e391d31",
    "lat": 55.6849991,
    "lon": 24.2870228,
    "display_name": "Panevėžio aplinkl. 22, 38292, Lietuva",
    "query": "Neste Lietuva, Šilagalio k., Panevėžio aplinkl. 22, 36258, Lietuva",
    "geocode_updated_at": "2026-06-12T10:09:13.034Z",
    "status": "resolved"
  },
  {
    "station_id": "0dce4359092fd834",
    "lat": 54.6690833,
    "lon": 25.2784966,
    "display_name": "Šv. Stepono g. 44, 01312 Vilnius, Lietuva",
    "query": "Alauša, Šv. Stepono g. 44, Vilnius, Lietuva",
    "geocode_updated_at": "2026-04-10T18:07:21.391Z",
    "status": "resolved"
  },
  {
    "station_id": "0dd6e13ace754e0f",
    "lat": 54.717556,
    "lon": 25.3043521,
    "display_name": "Žirmūnų g. 68B, 09124 Vilnius, Lietuva",
    "query": "Neste Lietuva, Vilnius, Žirmūnų g. 68B, 09113, Lietuva",
    "geocode_updated_at": "2026-06-12T10:09:13.428Z",
    "status": "resolved"
  },
  {
    "station_id": "0de8e228f932460f",
    "lat": 55.6939155,
    "lon": 21.1403151,
    "display_name": "Minijos g. 44, 91197 Klaipėda, Lietuva",
    "query": "Orlen, Minijos g. 44, Klaipėda, Lietuva",
    "geocode_updated_at": "2026-04-10T18:07:21.763Z",
    "status": "resolved"
  },
  {
    "station_id": "0e03498cf93772cd",
    "lat": 54.6766887,
    "lon": 23.4176836,
    "display_name": "Sodo g. 11, 69370 Gavaltuva, Lietuva",
    "query": "Regusa, Sodo g. 11, Gavaltuvos k., Lietuva",
    "geocode_updated_at": "2026-04-10T18:07:22.140Z",
    "status": "resolved"
  },
  {
    "station_id": "0e654305667ca13f",
    "lat": 54.7679053,
    "lon": 25.1970743,
    "display_name": "Senasis Ukmergės kl. 4, 14180 Avižieniai, Lietuva",
    "query": "Baltic Petroleum, Užubalių k., Senasis Ukmergės kl. 4, 14013, Lietuva",
    "geocode_updated_at": "2026-06-12T10:09:13.766Z",
    "status": "resolved"
  },
  {
    "station_id": "0ed1fd1bd6469665",
    "lat": 54.40895560000001,
    "lon": 24.0051886,
    "display_name": "Ūdrijos g. 31, 62411 Alytus, Lietuva",
    "query": "Neste Lietuva, Ūdrijos g. 31, Alytus, Lietuva",
    "geocode_updated_at": "2026-04-10T18:07:22.548Z",
    "status": "resolved"
  },
  {
    "station_id": "0ef08b459a1def5f",
    "lat": 54.8500609,
    "lon": 23.9658745,
    "display_name": "Marijampolės pl. 20, 46147 Kaunas, Lietuva",
    "query": "Regusa, Marijampolės pl. 20, Kaunas, Lietuva",
    "geocode_updated_at": "2026-04-10T18:07:22.920Z",
    "status": "resolved"
  },
  {
    "station_id": "0f00050b992fd77a",
    "lat": 54.6227759,
    "lon": 25.1053473,
    "display_name": "Gunkliškių g. 2f, Vilnius, 02231 Vilniaus m. sav., Lietuva",
    "query": "Emsi, Vilnius, Gunkliškių g. 2F, 02231, Lietuva",
    "geocode_updated_at": "2026-06-12T10:09:14.094Z",
    "status": "resolved"
  },
  {
    "station_id": "0f0e81de67333ecd",
    "lat": 54.7807687,
    "lon": 25.2739088,
    "display_name": "Molėtų g. 15, Didieji Gulbinai, 14268 Vilniaus r. sav., Lietuva",
    "query": "Circle K Lietuva, Didžiosios Riešės k., Molėtų g. 15, 14262, Lietuva",
    "geocode_updated_at": "2026-06-12T10:09:14.453Z",
    "status": "resolved"
  },
  {
    "station_id": "0f5d04dbcdd78fae",
    "lat": 55.07715779999999,
    "lon": 22.7510481,
    "display_name": "Muitinės g. 32, Jurbarkas, 74111 Jurbarko r. sav., Lietuva",
    "query": "Gelvybė, Jurbarkas, Muitinės g. 32, 74111, Lietuva",
    "geocode_updated_at": "2026-06-12T10:09:14.792Z",
    "status": "resolved"
  },
  {
    "station_id": "0f856909c94061ef",
    "lat": 55.4841866,
    "lon": 22.5879939,
    "display_name": "Dvaro gatvė 3, košių ii k, 75226 Šilalės r. sav., Lietuva",
    "query": "Circle K, Dvaro g. 3, Košių II k., Lietuva",
    "geocode_updated_at": "2026-04-10T18:07:23.341Z",
    "status": "resolved"
  },
  {
    "station_id": "0f963735c9b4e05b",
    "lat": 54.7236325,
    "lon": 25.1912413,
    "display_name": "Buivydiškių g. 1a, 14160 Buivydiškės, Lietuva",
    "query": "Saurida, Zujūnai Buivydiškių g. 1A, Lietuva",
    "geocode_updated_at": "2026-04-10T18:07:23.719Z",
    "status": "resolved"
  },
  {
    "station_id": "0f97659d3f628806",
    "lat": 55.7041459,
    "lon": 21.1296058,
    "display_name": "Priešpilio g. 5, 93277 Klaipėda, Lietuva",
    "query": "Gindana, Priešpilio g.5, Lietuva",
    "geocode_updated_at": "2026-06-12T10:09:15.128Z",
    "status": "resolved"
  },
  {
    "station_id": "0fd40f8722deb491",
    "lat": 55.9440799,
    "lon": 23.3311358,
    "display_name": "Tilžės g. 274, 76201 Šiauliai, Lietuva",
    "query": "Viada, Tilžės g. 274, Šiauliai, Lietuva",
    "geocode_updated_at": "2026-04-10T18:07:24.110Z",
    "status": "resolved"
  },
  {
    "station_id": "1072b65665a244d1",
    "lat": 54.8357183,
    "lon": 25.4601668,
    "display_name": "Taikos g. 1-k, Kreivalaužiai, 15166 Vilniaus r. sav., Lietuva",
    "query": "Emsi, Kreivalaužių k., Taikos g. 1, 15166, Lietuva",
    "geocode_updated_at": "2026-06-12T10:09:15.488Z",
    "status": "resolved"
  },
  {
    "station_id": "10ababa76dbde43c",
    "lat": 54.36682829999999,
    "lon": 24.3376067,
    "display_name": "Neveiglo g. 25, 64144 Daugai, Lietuva",
    "query": "Viada LT, Daugų k., Neveiglo g. 25, 64144, Lietuva",
    "geocode_updated_at": "2026-06-12T10:09:15.834Z",
    "status": "resolved"
  },
  {
    "station_id": "10bb3b568a014180",
    "lat": 54.9120819,
    "lon": 23.972648,
    "display_name": "Taikos pr. 80A, 51297 Kaunas, Lietuva",
    "query": "Neste Lietuva, Kaunas, Taikos pr. 80A, 50441, Lietuva",
    "geocode_updated_at": "2026-06-12T10:09:16.167Z",
    "status": "resolved"
  },
  {
    "station_id": "10ee607690b1c0ab",
    "lat": 55.74823629999999,
    "lon": 24.3907302,
    "display_name": "Senamiesčio g. 115, 35114 Panevėžys, Lietuva",
    "query": "Orlen, Senamiesčio g. 115, Panevėžys, Lietuva",
    "geocode_updated_at": "2026-04-10T18:07:24.529Z",
    "status": "resolved"
  },
  {
    "station_id": "11081f7d0e1a0f98",
    "lat": 55.4129649,
    "lon": 22.8218646,
    "display_name": "Šilo g. 1, 60389 Yliai, Lietuva",
    "query": "Naftrus, Ylių k., Šilo g. 1, 60389, Lietuva",
    "geocode_updated_at": "2026-06-12T10:09:16.518Z",
    "status": "resolved"
  },
  {
    "station_id": "110c701d3b3e7d58",
    "lat": 55.2173969,
    "lon": 25.40344,
    "display_name": "Vilniaus g. 104, 33114 Molėtai, Lietuva",
    "query": "Baltic Petroleum, Molėtai, Vilniaus g. 104, 33114, Lietuva",
    "geocode_updated_at": "2026-06-12T10:09:16.872Z",
    "status": "resolved"
  },
  {
    "station_id": "117ecb0601e0d1fc",
    "lat": 55.07822059999999,
    "lon": 22.7449222,
    "display_name": "Muitinės g. 22a, 74111 Jurbarkas, Lietuva",
    "query": "Baltic Petroleum, Jurbarkas, Muitinės g. 22A, 74111, Lietuva",
    "geocode_updated_at": "2026-06-12T10:09:17.206Z",
    "status": "resolved"
  },
  {
    "station_id": "11947789440757ad",
    "lat": 55.6929901,
    "lon": 21.1796859,
    "display_name": "Vilniaus pl. 6-k, 94105 Klaipėda, Lietuva",
    "query": "Viada, Vilniaus pl. 6, Sudmantų k., Lietuva",
    "geocode_updated_at": "2026-04-10T18:08:23.017Z",
    "status": "resolved"
  },
  {
    "station_id": "120ed8e0e6c892f7",
    "lat": 54.6404959,
    "lon": 25.2674413,
    "display_name": "Metalo g. 4, 02190 Vilnius, Lietuva",
    "query": "Baltic Petroleum, Vilnius, Metalo g. 4B, 02189, Lietuva",
    "geocode_updated_at": "2026-06-12T10:09:17.538Z",
    "status": "resolved"
  },
  {
    "station_id": "126769cf085068db",
    "lat": 55.0973716,
    "lon": 23.806765,
    "display_name": "Vandžiogalos g., 54327 Babtai, Lietuva",
    "query": "Saurida, Babtai Vandžiogalos g. 3, Lietuva",
    "geocode_updated_at": "2026-04-10T18:07:24.892Z",
    "status": "resolved"
  },
  {
    "station_id": "12cff28184d39b96",
    "lat": 54.8990214,
    "lon": 23.960112,
    "display_name": "K. Baršausko g. 57, 51423 Kaunas, Lietuva",
    "query": "Circle K Lietuva, Kaunas, K. Baršausko g. 57, 51423, Lietuva",
    "geocode_updated_at": "2026-06-12T10:09:17.921Z",
    "status": "resolved"
  },
  {
    "station_id": "135c129dfb92da1f",
    "lat": 55.97575819999999,
    "lon": 22.2636237,
    "display_name": "Masčio g. 21, 87001 Telšiai, Lietuva",
    "query": "Prie Luksto, Telšiai, Masčio g. 21, 87139, Lietuva",
    "geocode_updated_at": "2026-06-12T10:09:18.260Z",
    "status": "resolved"
  },
  {
    "station_id": "136397415f6afd77",
    "lat": 54.9324875,
    "lon": 23.8578738,
    "display_name": "B. Brazdžionio g. 2, 47239 Kaunas, Lietuva",
    "query": "Baltic Petroleum, Vilnius, B. Brazdžionio g. 2, 47266, Lietuva",
    "geocode_updated_at": "2026-06-12T10:09:18.604Z",
    "status": "resolved"
  },
  {
    "station_id": "137e3fe4e1adc316",
    "lat": 54.9255246,
    "lon": 23.8918165,
    "display_name": "Žemaičių pl. 26, 48256 Kaunas, Lietuva",
    "query": "Neste Lietuva, Žemaičių pl. 26, Kaunas, Lietuva",
    "geocode_updated_at": "2026-04-10T18:07:25.301Z",
    "status": "resolved"
  },
  {
    "station_id": "13adbcf04194ba31",
    "lat": 55.5049625,
    "lon": 25.621052,
    "display_name": "J. Basanavičiaus g. 108a, 28214 Utena, Lietuva",
    "query": "Circle K Lietuva, Utena, J. Basanavičiaus g. 108A, 28214, Lietuva",
    "geocode_updated_at": "2026-06-12T10:09:18.940Z",
    "status": "resolved"
  },
  {
    "station_id": "13c35f7a0eb6462b",
    "lat": 54.7222739,
    "lon": 25.3172765,
    "display_name": "Antakalnio g. 128, 10200 Vilnius, Lietuva",
    "query": "Baltic Petroleum, Antakalnio g. 128, Vilnius, Lietuva",
    "geocode_updated_at": "2026-04-10T18:07:25.679Z",
    "status": "resolved"
  },
  {
    "station_id": "13e7ddd7590eebb4",
    "lat": 55.8282179,
    "lon": 22.8545149,
    "display_name": "86377 Ramučiai, Lietuva",
    "query": "Raimondo Balsio IĮ, Luokės 2, Ramučių k., Lietuva",
    "geocode_updated_at": "2026-04-30T08:46:40.816Z",
    "status": "resolved"
  },
  {
    "station_id": "13f1505f53fe7165",
    "lat": 55.1379435,
    "lon": 26.1558163,
    "display_name": "Mokyklos g. 23, 18111 Švenčionys, Lietuva",
    "query": "Naftos dujos, Švenčionys, Mokyklos g. 23, 18111, Lietuva",
    "geocode_updated_at": "2026-06-12T10:09:19.297Z",
    "status": "resolved"
  },
  {
    "station_id": "143c2457c46785b6",
    "lat": 55.977007,
    "lon": 22.265474,
    "display_name": "Luokės g. 70, 87128 Telšiai, Lietuva",
    "query": "Circle K, Luokės g. 70, Telšiai, Lietuva",
    "geocode_updated_at": "2026-04-10T18:07:26.081Z",
    "status": "resolved"
  },
  {
    "station_id": "144fc86faf69810c",
    "lat": 54.2287927,
    "lon": 23.5284025,
    "display_name": "Turistų g. 32, 67102 Lazdijai, Lietuva",
    "query": "Viada, Turistų g. 32, Lazdijai, Lietuva",
    "geocode_updated_at": "2026-04-10T18:07:26.455Z",
    "status": "resolved"
  },
  {
    "station_id": "146f297c8a2ca589",
    "lat": 54.7028609,
    "lon": 25.20391,
    "display_name": "Pilaitės pr. 13, 06264 Vilnius, Lietuva",
    "query": "Viada LT, Vilnius, Pilaitės pr. 13, 06264, Lietuva",
    "geocode_updated_at": "2026-06-12T10:09:19.634Z",
    "status": "resolved"
  },
  {
    "station_id": "1478066ba53b46a3",
    "lat": 56.30528959999999,
    "lon": 22.342462,
    "display_name": "Sedos g. 16, 89233 Mažeikiai, Lietuva",
    "query": "Tripletas, Mažeikiai, Sedos g. 16, 89233, Lietuva",
    "geocode_updated_at": "2026-06-12T10:09:19.975Z",
    "status": "resolved"
  },
  {
    "station_id": "14a55dd7f8e6ec4a",
    "lat": 55.95465,
    "lon": 23.3162431,
    "display_name": "J. Basanavičiaus g. 122A, Šiauliai, 76161 Šiaulių m. sav., Lietuva",
    "query": "Viada LT, Šiauliai, J. Basanavičiaus g. 122A, 76161, Lietuva",
    "geocode_updated_at": "2026-06-12T10:09:20.309Z",
    "status": "resolved"
  },
  {
    "station_id": "14be12c863f80595",
    "lat": 55.7964703,
    "lon": 24.8888357,
    "display_name": "Parko g. 3A, 40395 Noriūnai, Lietuva",
    "query": "Baltic Petroleum, Parko g. 3A, Noriūnų k., Lietuva",
    "geocode_updated_at": "2026-04-10T18:07:26.838Z",
    "status": "resolved"
  },
  {
    "station_id": "15542ee221fdaf08",
    "lat": 54.7087946,
    "lon": 25.1897922,
    "display_name": "Pilaitės pr. 27, Vilnius, 06269 Vilniaus m. sav., Lietuva",
    "query": "Neste Lietuva, Pilaitės pr. 27, Vilnius, Lietuva",
    "geocode_updated_at": "2026-04-10T18:07:27.242Z",
    "status": "resolved"
  },
  {
    "station_id": "15790dbeada3cb08",
    "lat": 54.9271374,
    "lon": 23.9746292,
    "display_name": "Pramonės pr. 44, 50302 Kaunas, Lietuva",
    "query": "Viada, Pramonės pr. 44, Kaunas, Lietuva",
    "geocode_updated_at": "2026-04-10T18:07:27.624Z",
    "status": "resolved"
  },
  {
    "station_id": "15c3a7ba3901e878",
    "lat": 54.4244517,
    "lon": 23.232028,
    "display_name": "Dariaus ir Girėno g. 81, 69219 Kalvarija, Lietuva",
    "query": "Viada, Dariaus ir Girėno g. 81, Kalvarija, Lietuva",
    "geocode_updated_at": "2026-04-10T18:07:28.014Z",
    "status": "resolved"
  },
  {
    "station_id": "15fab909f0122ce6",
    "lat": 55.169438,
    "lon": 23.881275,
    "display_name": "Lietuva",
    "query": "Baltic Petroleum, Pievų g. 2, Klišių k., Lietuva",
    "geocode_updated_at": "2026-04-10T18:07:28.377Z",
    "status": "resolved"
  },
  {
    "station_id": "16420cdeeb4e0c1b",
    "lat": 54.657932,
    "lon": 23.0331943,
    "display_name": "S. Nėries g. 38, 70165 Vilkaviškis, Lietuva",
    "query": "Emsi, S.Nėries g.38, Vilkaviškis, Lietuva",
    "geocode_updated_at": "2026-04-10T18:07:28.787Z",
    "status": "resolved"
  },
  {
    "station_id": "16646fa19724a9ae",
    "lat": 55.169438,
    "lon": 23.881275,
    "display_name": "Lietuva",
    "query": "Eniris, Ruoščių k. 1, Lietuva",
    "geocode_updated_at": "2026-04-10T18:07:29.130Z",
    "status": "resolved"
  },
  {
    "station_id": "1668511feece4e5b",
    "lat": 55.9226655,
    "lon": 23.3578824,
    "display_name": "Užmiesčio g. 2, 76273 Šiauliai, Lietuva",
    "query": "Viada LT, Šiauliai, Užmiesčio g. 2, 76273, Lietuva",
    "geocode_updated_at": "2026-06-12T10:09:20.654Z",
    "status": "resolved"
  },
  {
    "station_id": "1669c6b0d4ded1a4",
    "lat": 55.6307566,
    "lon": 22.9330112,
    "display_name": "Kelmė, Kelmės r. sav., Lietuva",
    "query": "Eniris, Puttvinskio g. 29, Kelmė, Lietuva",
    "geocode_updated_at": "2026-04-10T18:07:29.520Z",
    "status": "resolved"
  },
  {
    "station_id": "1676a27c238a9937",
    "lat": 55.67579809999999,
    "lon": 25.3586922,
    "display_name": "29345 Sausalaukė, Lietuva",
    "query": "Narjanta, Sausalaukės k. 2, 29345, Lietuva",
    "geocode_updated_at": "2026-06-12T10:09:21.024Z",
    "status": "resolved"
  },
  {
    "station_id": "168af11845af113e",
    "lat": 56.2582211,
    "lon": 22.3094811,
    "display_name": "Laukų g. 2C, 89330 Tirkšliai, Lietuva",
    "query": "Visvilas, Tirkšlių k., Laukų g. 2C, 89330, Lietuva",
    "geocode_updated_at": "2026-06-12T10:09:21.367Z",
    "status": "resolved"
  },
  {
    "station_id": "16ac2647d607f313",
    "lat": 55.1650783,
    "lon": 24.5153114,
    "display_name": "Pageležių k, 20278 Pageležiai, Lietuva",
    "query": "Saurida, 20278, Pageležių k, Lietuva",
    "geocode_updated_at": "2026-06-12T10:09:21.709Z",
    "status": "resolved"
  },
  {
    "station_id": "16cd5b4975062f76",
    "lat": 56.061905,
    "lon": 24.4131519,
    "display_name": "Taikos g. 24, 39132 Pasvalys, Lietuva",
    "query": "Emsi, Pasvalys, Taikos g. 24, 39132, Lietuva",
    "geocode_updated_at": "2026-06-12T10:09:22.054Z",
    "status": "resolved"
  },
  {
    "station_id": "16d1cf79797f445b",
    "lat": 54.8551801,
    "lon": 24.0131981,
    "display_name": "Didžioji g. 84, 45473 Kaunas, Lietuva",
    "query": "Viada, Didžioji g. 84, Kaunas, Lietuva",
    "geocode_updated_at": "2026-04-10T18:07:29.901Z",
    "status": "resolved"
  },
  {
    "station_id": "171c195894b6772e",
    "lat": 54.7234577,
    "lon": 25.2331756,
    "display_name": "Laisvės pr. 80, 06125 Vilnius, Lietuva",
    "query": "Emsi, Laisvės pr. 80B, Vilnius, Lietuva",
    "geocode_updated_at": "2026-04-10T18:07:30.278Z",
    "status": "resolved"
  },
  {
    "station_id": "1725c9007607d693",
    "lat": 55.2524683,
    "lon": 23.9679968,
    "display_name": "Miškininkų g. 14, 58163 Pelėdnagiai, Lietuva",
    "query": "Sigito Rimkevičiaus komercinė įmonė, Pelėdnagiai, Miškininkų g. 14, 58163, Lietuva",
    "geocode_updated_at": "2026-06-12T10:09:22.407Z",
    "status": "resolved"
  },
  {
    "station_id": "17322dec160288cb",
    "lat": 55.4841866,
    "lon": 22.5879939,
    "display_name": "Dvaro gatvė 3, košių ii k, 75226 Šilalės r. sav., Lietuva",
    "query": "Circle K Lietuva, Košių II k., Dvaro g. 3, 75226, Lietuva",
    "geocode_updated_at": "2026-06-12T10:09:22.757Z",
    "status": "resolved"
  },
  {
    "station_id": "17381451ca7c744c",
    "lat": 55.6851306,
    "lon": 21.1471005,
    "display_name": "Minijos g. 94, Klaipėda, 93239 Klaipėdos m. sav., Lietuva",
    "query": "Stateta, Klaipėda, Minijos g. 90, 93239, Lietuva",
    "geocode_updated_at": "2026-06-12T10:09:23.093Z",
    "status": "resolved"
  },
  {
    "station_id": "17474e85a0e6c0d8",
    "lat": 55.97666899999999,
    "lon": 25.824976,
    "display_name": "Dumblės, Rokiškio r. sav., Lietuva",
    "query": "Tomega, 17178, Dumblės k., Lietuva",
    "geocode_updated_at": "2026-06-12T10:09:23.424Z",
    "status": "resolved"
  },
  {
    "station_id": "174e64f69df59444",
    "lat": 55.8243416,
    "lon": 25.0013444,
    "display_name": "Kikonių g. 10, Aleksandrija, 40335 Kupiškio r. sav., Lietuva",
    "query": "Narjanta, Kikonių g. 10, Aleksandrijos k., Lietuva",
    "geocode_updated_at": "2026-04-10T18:07:30.656Z",
    "status": "resolved"
  },
  {
    "station_id": "17760e58440e1711",
    "lat": 54.92532989999999,
    "lon": 23.8907331,
    "display_name": "Žemaičių pl. 19, 48255 Kaunas, Lietuva",
    "query": "Circle K, Žemaičių pl. 19, Kaunas, Lietuva",
    "geocode_updated_at": "2026-04-10T18:07:31.038Z",
    "status": "resolved"
  },
  {
    "station_id": "179c6366afb6814e",
    "lat": 54.7369444,
    "lon": 25.2319444,
    "display_name": "Ukmergės g. 319, 06305 Vilnius, Lietuva",
    "query": "Orlen, Ukmergės g. 319, Vilnius, Lietuva",
    "geocode_updated_at": "2026-04-10T18:07:31.412Z",
    "status": "resolved"
  },
  {
    "station_id": "17b46605ff6656f3",
    "lat": 54.9274891,
    "lon": 23.9721922,
    "display_name": "Savanorių pr. 402A, 49281 Kaunas, Lietuva",
    "query": "Emsi, Kaunas, Savanorių pr. 402A, 49281, Lietuva",
    "geocode_updated_at": "2026-06-12T10:09:23.771Z",
    "status": "resolved"
  },
  {
    "station_id": "17ef6b1ac8c13223",
    "lat": 56.31438139999999,
    "lon": 22.3111577,
    "display_name": "Skuodo g. 14, 89100 Mažeikiai, Lietuva",
    "query": "Orlen Baltics Retail, Mažeikiai, Skuodo g. 14, 89100, Lietuva",
    "geocode_updated_at": "2026-06-12T10:09:24.105Z",
    "status": "resolved"
  },
  {
    "station_id": "1802bfffac2720cf",
    "lat": 55.26530529999999,
    "lon": 22.3088319,
    "display_name": "Dariaus ir Girėno g. 130A, 72194 Tauragė, Lietuva",
    "query": "Neste Lietuva, Dariaus ir Girėno g. 130A, Tauragė, Lietuva",
    "geocode_updated_at": "2026-04-10T18:07:31.800Z",
    "status": "resolved"
  },
  {
    "station_id": "18523247327dcd36",
    "lat": 54.8873891,
    "lon": 23.9213268,
    "display_name": "Karaliaus Mindaugo pr. 54, 44351 Kaunas, Lietuva",
    "query": "Viada LT, Kaunas, Karaliaus Mindaugo pr. 54, 44351, Lietuva",
    "geocode_updated_at": "2026-06-12T10:09:24.451Z",
    "status": "resolved"
  },
  {
    "station_id": "185425ecde5b7ae4",
    "lat": 54.328293,
    "lon": 23.1504646,
    "display_name": "Naujosios Valios k., Europos g. 6-k, Naujoji Valia, 69270 Kalvarijos sav., Lietuva",
    "query": "Neste Lietuva, N. Valios k., Europos g. 6, 69270, Lietuva",
    "geocode_updated_at": "2026-06-12T10:09:24.796Z",
    "status": "resolved"
  },
  {
    "station_id": "18a5c3b2320bfd88",
    "lat": 54.65183649999999,
    "lon": 25.1854119,
    "display_name": "Jankiškių g. 43A, Vilnius, 02300 Vilniaus m. sav., Lietuva",
    "query": "Saurida, Jankiškių g. 43a, Vilnius, Lietuva",
    "geocode_updated_at": "2026-04-10T18:07:32.196Z",
    "status": "resolved"
  },
  {
    "station_id": "18aefa494dd975ec",
    "lat": 55.7063704,
    "lon": 21.363419,
    "display_name": "Gamyklos g. 1, 96155 Gargždai, Lietuva",
    "query": "Jozita, Gamyklos g. 1, Gargždai, Lietuva",
    "geocode_updated_at": "2026-04-10T18:07:32.565Z",
    "status": "resolved"
  },
  {
    "station_id": "18af7c44bf326d27",
    "lat": 55.8258425,
    "lon": 24.9794922,
    "display_name": "Panevėžio g. 9, 40134 Kupiškis, Lietuva",
    "query": "Stateta, Panevėžio g. 9, Kupiškis, Lietuva",
    "geocode_updated_at": "2026-04-10T18:07:33.146Z",
    "status": "resolved"
  },
  {
    "station_id": "18e2ab17093d330f",
    "lat": 54.764016,
    "lon": 25.1966856,
    "display_name": "Ožiarūčių g 1A, 14185 Bukiškis, Lietuva",
    "query": "Viada, Ožiarūčių g. 1a, Avižienių k., Lietuva",
    "geocode_updated_at": "2026-04-10T18:07:33.519Z",
    "status": "resolved"
  },
  {
    "station_id": "1913a0dd77abd436",
    "lat": 54.7224395,
    "lon": 25.2710137,
    "display_name": "J. Kazlausko g. 33, 08314 Vilnius, Lietuva",
    "query": "Skulas, J.Kazlausko g. 34, Vilnius, Lietuva",
    "geocode_updated_at": "2026-04-10T18:07:33.890Z",
    "status": "resolved"
  },
  {
    "station_id": "1991f297e3108339",
    "lat": 54.6018982,
    "lon": 23.1949396,
    "display_name": "Marijampolės g. 8, Rūda, 70313 Vilkaviškio r. sav., Lietuva",
    "query": "Gelvybė, Rūdos k., Marijampolės g. 8, 70313, Lietuva",
    "geocode_updated_at": "2026-06-12T10:09:25.133Z",
    "status": "resolved"
  },
  {
    "station_id": "19c1ed1a140ae5f9",
    "lat": 55.1650783,
    "lon": 24.5153114,
    "display_name": "Pageležių k, 20278 Pageležiai, Lietuva",
    "query": "Saurida, Pageležių km., Lietuva",
    "geocode_updated_at": "2026-04-10T18:07:34.263Z",
    "status": "resolved"
  },
  {
    "station_id": "19c40be2b719a63d",
    "lat": 55.8154166,
    "lon": 23.5435181,
    "display_name": "Šiaulių g. 12, 82142 Radviliškis, Lietuva",
    "query": "Apsaga, Radviliškis, Šiaulių g. 12, 82142, Lietuva",
    "geocode_updated_at": "2026-06-12T10:09:25.479Z",
    "status": "resolved"
  },
  {
    "station_id": "1a0522431eefe30f",
    "lat": 55.93894700000001,
    "lon": 21.8801181,
    "display_name": "Pramogų g. 4-k, Truikiai, 90110 Plungės r. sav., Lietuva",
    "query": "VVARFF, Truikių k., Pramogų g. 4, 90110, Lietuva",
    "geocode_updated_at": "2026-06-12T10:09:25.835Z",
    "status": "resolved"
  },
  {
    "station_id": "1a20f0b20a41b6f0",
    "lat": 55.2865443,
    "lon": 23.9724734,
    "display_name": "J. Basanavičiaus g. 40a, 57290 Kėdainiai, Lietuva",
    "query": "Circle K, J. Basanavičiaus g. 40a, Kėdainiai, Lietuva",
    "geocode_updated_at": "2026-04-10T18:07:34.655Z",
    "status": "resolved"
  },
  {
    "station_id": "1a5358a4f9caaa03",
    "lat": 54.7892076,
    "lon": 24.6760866,
    "display_name": "Sabališkių g. 1f, 26141 Elektrėnai, Lietuva",
    "query": "Circle K, Sabališkių g. 1F, Elektrėnai, Lietuva",
    "geocode_updated_at": "2026-04-10T18:07:35.024Z",
    "status": "resolved"
  },
  {
    "station_id": "1b18260ab1ed1ffe",
    "lat": 54.9227321,
    "lon": 23.8699581,
    "display_name": "Baltų pr. 141, 47126 Kaunas, Lietuva",
    "query": "Jozita, Kaunas, Baltų pr. 141A, 47126, Lietuva",
    "geocode_updated_at": "2026-06-12T10:09:26.174Z",
    "status": "resolved"
  },
  {
    "station_id": "1b583172780083eb",
    "lat": 54.93379789999999,
    "lon": 23.8677439,
    "display_name": "Vakarinis aplinkl. 18, 48182 Kaunas, Lietuva",
    "query": "Neste Lietuva, Vakarinis aplinkkelis 18, Kaunas, Lietuva",
    "geocode_updated_at": "2026-04-10T18:07:35.398Z",
    "status": "resolved"
  },
  {
    "station_id": "1b6119a805a6a701",
    "lat": 54.7398381,
    "lon": 25.2761118,
    "display_name": "Jeruzalės g. 2, 08414 Vilnius, Lietuva",
    "query": "Emsi, Jeruzalės 2, Vilnius, Lietuva",
    "geocode_updated_at": "2026-04-10T18:07:35.769Z",
    "status": "resolved"
  },
  {
    "station_id": "1b909d5a7c082307",
    "lat": 55.169438,
    "lon": 23.881275,
    "display_name": "Lietuva",
    "query": "Jozita, Kuosiškių k. 4, Lietuva",
    "geocode_updated_at": "2026-04-10T18:07:36.116Z",
    "status": "resolved"
  },
  {
    "station_id": "1bb18ca4e76a4530",
    "lat": 54.1634114,
    "lon": 24.1876479,
    "display_name": "Vilniaus g. 6, 65338 Merkinė, Lietuva",
    "query": "Baltic Petroleum, Vilniaus g. 6A, Senoji Varėna, Lietuva",
    "geocode_updated_at": "2026-04-10T18:07:36.526Z",
    "status": "resolved"
  },
  {
    "station_id": "1bb43b04d18bdd76",
    "lat": 55.6685983,
    "lon": 21.1590641,
    "display_name": "Minijos g. 154A, 93263 Klaipėda, Lietuva",
    "query": "Emsi, Klaipėda, Minijos g. 154A, 93263, Lietuva",
    "geocode_updated_at": "2026-06-12T10:09:26.508Z",
    "status": "resolved"
  },
  {
    "station_id": "1bbf8b9bc6326c0d",
    "lat": 54.9333665,
    "lon": 23.9434658,
    "display_name": "Ašigalio g. 1, 49160 Kaunas, Lietuva",
    "query": "Skulas, Ašigalio g. 1 A, Kaunas, Lietuva",
    "geocode_updated_at": "2026-04-10T18:07:36.898Z",
    "status": "resolved"
  },
  {
    "station_id": "1bf5d6f5fbf3a288",
    "lat": 55.731979,
    "lon": 22.147668,
    "display_name": "Tverai, Rietavo sav., Lietuva",
    "query": "Gazimpeksas, Rietavo g. 32, Tverai, Lietuva",
    "geocode_updated_at": "2026-04-10T18:09:44.037Z",
    "status": "resolved"
  },
  {
    "station_id": "1c0b3b38207305ee",
    "lat": 54.9770264,
    "lon": 23.4837331,
    "display_name": "Šakių str. 3, Lekėčiai village, 71229 Lekėčiai, Lietuva",
    "query": "Saurida, Lėkėčių km. Šakių g. 3, 71227, Lietuva",
    "geocode_updated_at": "2026-06-10T09:47:05.091Z",
    "status": "resolved"
  },
  {
    "station_id": "1c9a7f15bde34be2",
    "lat": 54.0302534,
    "lon": 23.9835633,
    "display_name": "Leipalingio g. 26, Druskininkai, 66371 Druskininkų sav., Lietuva",
    "query": "Baltic Petroleum, Druskininkai, Leipalingio g. 26, 66371, Lietuva",
    "geocode_updated_at": "2026-06-12T10:09:26.837Z",
    "status": "resolved"
  },
  {
    "station_id": "1cbdef748050c74d",
    "lat": 54.6691455,
    "lon": 25.1047435,
    "display_name": "Kovo 11-osios g. 75, 27119 Grigiškės, Lietuva",
    "query": "Viada, Vilnius, Grigiškės, Kovo 11-osios g. 75, Lietuva",
    "geocode_updated_at": "2026-04-10T18:07:37.268Z",
    "status": "resolved"
  },
  {
    "station_id": "1d9c69fa26c43e49",
    "lat": 55.8844039,
    "lon": 21.2217619,
    "display_name": "Tiekėjų g. 34A, 97187 Kretinga, Lietuva",
    "query": "Eniris, Kretinga, Tiekėjų g. 34a, 97187, Lietuva",
    "geocode_updated_at": "2026-06-10T09:47:05.455Z",
    "status": "resolved"
  },
  {
    "station_id": "1dfe4c0d7ddb8682",
    "lat": 54.56519059999999,
    "lon": 23.3686234,
    "display_name": "Stoties g. 6B, 68110 Marijampolė, Lietuva",
    "query": "Emsi, Stoties g. 6B, Marijampolė, Lietuva",
    "geocode_updated_at": "2026-04-10T18:07:37.629Z",
    "status": "resolved"
  },
  {
    "station_id": "1e1615c8bdde9ec5",
    "lat": 55.2408888,
    "lon": 24.7398628,
    "display_name": "Kauno g. 49, Ukmergė, 20118 Ukmergės r. sav., Lietuva",
    "query": "Baltic Petroleum, Ukmergė, Kauno g. 49, 20115, Lietuva",
    "geocode_updated_at": "2026-06-12T10:09:27.182Z",
    "status": "resolved"
  },
  {
    "station_id": "1e2194dd97c05afd",
    "lat": 55.300721,
    "lon": 20.9800117,
    "display_name": "Nidos-Smiltynės pl. 6, 93123 Neringa, Lietuva",
    "query": "Baltic Petroleum, Neringa, Nidos-Smiltynės pl. 6, 93125, Lietuva",
    "geocode_updated_at": "2026-06-12T10:09:27.525Z",
    "status": "resolved"
  },
  {
    "station_id": "1e2f696e55c5e7d2",
    "lat": 54.9498675,
    "lon": 23.8738335,
    "display_name": "Vakarų g. 14, 47425 Kaunas, Lietuva",
    "query": "Neste Lietuva, Vakarų g. 14, Kumpių k., Lietuva",
    "geocode_updated_at": "2026-04-10T18:07:38.011Z",
    "status": "resolved"
  },
  {
    "station_id": "1e3838df3424bd7d",
    "lat": 55.6697303,
    "lon": 24.3462269,
    "display_name": "Panevėžio aplinkl. 12, 38242 Šilagalys, Lietuva",
    "query": "Emsi, Šilagalio k., Panevėžio aplinkl. 12, 38242, Lietuva",
    "geocode_updated_at": "2026-06-12T10:09:27.860Z",
    "status": "resolved"
  },
  {
    "station_id": "1e59c41b086d9658",
    "lat": 54.9174612,
    "lon": 24.0350871,
    "display_name": "Taikos pr. 120, 52140 Kaunas, Lietuva",
    "query": "Baltic Petroleum, Taikos pr. 120, Kaunas, Lietuva",
    "geocode_updated_at": "2026-04-10T18:07:38.396Z",
    "status": "resolved"
  },
  {
    "station_id": "1e8b23a8afbda341",
    "lat": 54.2057273,
    "lon": 25.6152643,
    "display_name": "Skraičionių g. 1, 17140 Skraičionys, Lietuva",
    "query": "Alauša, Skraičionių g. 1, Skraičionių k., Lietuva",
    "geocode_updated_at": "2026-04-10T18:07:38.779Z",
    "status": "resolved"
  },
  {
    "station_id": "1eacfcd1d960dc11",
    "lat": 55.7122725,
    "lon": 21.381631,
    "display_name": "Klaipėdos g. 39, Gargždai, 96157 Klaipėdos r. sav., Lietuva",
    "query": "Trevena, Gargždai, Klaipėdos g. 39, 96157, Lietuva",
    "geocode_updated_at": "2026-06-12T10:09:28.206Z",
    "status": "resolved"
  },
  {
    "station_id": "1eb29eb972e3911d",
    "lat": 54.4076183,
    "lon": 24.0851659,
    "display_name": "Unnamed Road, 64464 Alytus, Lietuva",
    "query": "Stateta, Alytaus k., Lietuva",
    "geocode_updated_at": "2026-04-10T18:07:39.172Z",
    "status": "resolved"
  },
  {
    "station_id": "1f506ae3c6af54ee",
    "lat": 55.748543,
    "lon": 24.393371,
    "display_name": "Senamiesčio g. 116A, 35115 Panevėžys, Lietuva",
    "query": "Viada, Senamiesčio g. 116A, Panevėžys, Lietuva",
    "geocode_updated_at": "2026-04-10T18:07:39.553Z",
    "status": "resolved"
  },
  {
    "station_id": "1fc3f78450243b46",
    "lat": 55.9154815,
    "lon": 21.0781248,
    "display_name": "Klaipėdos pl. 44, 00111 Palanga, Lietuva",
    "query": "Baltic Petroleum, Palanga, Klaipėdos pl. 44, 00111, Lietuva",
    "geocode_updated_at": "2026-06-12T10:09:28.540Z",
    "status": "resolved"
  },
  {
    "station_id": "1ff0854cdda43fdb",
    "lat": 54.8550002,
    "lon": 23.952605,
    "display_name": "Plento g. 46, 45400 Kaunas, Lietuva",
    "query": "Baltic Petroleum, Plento g. 46, Spanėnų k., Lietuva",
    "geocode_updated_at": "2026-04-10T18:07:39.986Z",
    "status": "resolved"
  },
  {
    "station_id": "1ff14d2215707834",
    "lat": 55.9226973,
    "lon": 23.3578362,
    "display_name": "Užmiesčio g. 2, 76273 Šiauliai, Lietuva",
    "query": "Viada, Užmiesčio g. 2, Šiauliai, Lietuva",
    "geocode_updated_at": "2026-04-10T18:07:40.355Z",
    "status": "resolved"
  },
  {
    "station_id": "2007709ad4fbea9a",
    "lat": 55.2442212,
    "lon": 22.3037296,
    "display_name": "Gedimino g. 46, Tauragė, 72336 Tauragės r. sav., Lietuva",
    "query": "Orlen Baltics Retail, Tauragė, Gedimino g. 46, 72336, Lietuva",
    "geocode_updated_at": "2026-06-12T10:09:28.881Z",
    "status": "resolved"
  },
  {
    "station_id": "202eabe54f1fbf17",
    "lat": 55.7862294,
    "lon": 22.6710268,
    "display_name": "Žemaitės g. 52, Užventis, 86343 Kelmės r. sav., Lietuva",
    "query": "Eniris, Žemaitės g. 52, Užventis, Lietuva",
    "geocode_updated_at": "2026-04-10T18:07:40.731Z",
    "status": "resolved"
  },
  {
    "station_id": "203ff520fe7eb0b0",
    "lat": 55.7388016,
    "lon": 24.3101947,
    "display_name": "J. Janonio g. 28, 35101 Panevėžys, Lietuva",
    "query": "Viada LT, Panevėžys, J. Janonio g. 28A, 35101, Lietuva",
    "geocode_updated_at": "2026-06-15T11:20:14.532Z",
    "status": "resolved"
  },
  {
    "station_id": "20bc4a03cfc39092",
    "lat": 54.91315299999999,
    "lon": 23.926329,
    "display_name": "Tvirtovės al. 33a, 50157 Kaunas, Lietuva",
    "query": "Circle K, Tvirtovės alėja 33a, Kaunas, Lietuva",
    "geocode_updated_at": "2026-04-10T18:07:41.101Z",
    "status": "resolved"
  },
  {
    "station_id": "20f9b1edeb7323f5",
    "lat": 56.194814,
    "lon": 24.7720451,
    "display_name": "Kilučių g. 93, 41156 Biržai, Lietuva",
    "query": "Circle K, Kilučių g. 93, Biržai, Lietuva",
    "geocode_updated_at": "2026-04-10T18:07:41.484Z",
    "status": "resolved"
  },
  {
    "station_id": "219273de13cbd99c",
    "lat": 55.9167296,
    "lon": 23.2469009,
    "display_name": "Nuklono g. 4, Šiauliai, 78349 Šiaulių m. sav., Lietuva",
    "query": "Apsaga, Nuklono g. 4, Šiauliai, Lietuva",
    "geocode_updated_at": "2026-04-10T18:07:41.858Z",
    "status": "resolved"
  },
  {
    "station_id": "21e0119f1c794589",
    "lat": 54.6681556,
    "lon": 25.2651786,
    "display_name": "Panerių g. 42, Vilnius, 03202 Vilniaus m. sav., Lietuva",
    "query": "Neste Lietuva, Vilnius, Panerių g. 42, 03202, Lietuva",
    "geocode_updated_at": "2026-06-12T10:09:29.220Z",
    "status": "resolved"
  },
  {
    "station_id": "21e3ac89a68990bf",
    "lat": 54.633269,
    "lon": 25.1508109,
    "display_name": "Kirtimų g. 29, 02244 Vilnius, Lietuva",
    "query": "Viada LT, Vilnius, Kirtimų g. 29, 02244, Lietuva",
    "geocode_updated_at": "2026-06-12T10:09:29.552Z",
    "status": "resolved"
  },
  {
    "station_id": "21e4ecf47119b167",
    "lat": 55.7532446,
    "lon": 24.3122334,
    "display_name": "Pušaloto g. 191A, 35291 Panevėžys, Lietuva",
    "query": "Viada, Pušaloto g. 193A, Panevėžys, Lietuva",
    "geocode_updated_at": "2026-04-10T18:07:42.225Z",
    "status": "resolved"
  },
  {
    "station_id": "22250a2aa92f892d",
    "lat": 55.2904254,
    "lon": 24.2525491,
    "display_name": "Ramygalos g 55, Šėta, 58129 Kėdainių r. sav., Lietuva",
    "query": "Mindega, Šėta, Ramygalos g. 55, 58129, Lietuva",
    "geocode_updated_at": "2026-06-12T10:09:29.907Z",
    "status": "resolved"
  },
  {
    "station_id": "223c7b5823ab8600",
    "lat": 55.2778715,
    "lon": 23.9592758,
    "display_name": "J. Basanavičiaus g. 91E, Kėdainiai, 57356 Kėdainių r. sav., Lietuva",
    "query": "Dujovita, Basanavičiaus g. 91E, Kėdainiai, Lietuva",
    "geocode_updated_at": "2026-05-08T11:51:10.847Z",
    "status": "resolved"
  },
  {
    "station_id": "2321e6f479660016",
    "lat": 54.6285926,
    "lon": 23.9585095,
    "display_name": "Vilniaus g. 3A, 59115 Prienai, Lietuva",
    "query": "Baltic Petroleum, Vilniaus g. 3A, Prienai, Lietuva",
    "geocode_updated_at": "2026-04-10T18:07:42.620Z",
    "status": "resolved"
  },
  {
    "station_id": "232223da3eb4dc87",
    "lat": 54.72082270000001,
    "lon": 25.2848276,
    "display_name": "Kalvarijų g. 204G, Vilnius, 02300 Vilniaus m. sav., Lietuva",
    "query": "Alauša, Vilnius, Kalvarijų g. 204G, 08247, Lietuva",
    "geocode_updated_at": "2026-06-12T10:09:30.243Z",
    "status": "resolved"
  },
  {
    "station_id": "23466509e3332674",
    "lat": 54.6273847,
    "lon": 24.9486031,
    "display_name": "Vilniaus g. 33, Trakai, 21118 Trakų r. sav., Lietuva",
    "query": "Baltic Petroleum, Trakai, Vilniaus g. 33, 21118, Lietuva",
    "geocode_updated_at": "2026-06-12T10:09:30.582Z",
    "status": "resolved"
  },
  {
    "station_id": "237c12c592caeeb6",
    "lat": 54.7012617,
    "lon": 25.2038673,
    "display_name": "Pilaitės pr. 28, 06264 Vilnius, Lietuva",
    "query": "Viada, Pilaitės pr. 28, Vilnius, Lietuva",
    "geocode_updated_at": "2026-04-10T18:07:42.990Z",
    "status": "resolved"
  },
  {
    "station_id": "2394e2875422f0cb",
    "lat": 54.9456156,
    "lon": 23.0459076,
    "display_name": "Sodų g. 1, Šakiai, 71136 Šakių r. sav., Lietuva",
    "query": "Baltic Petroleum, Sodų g. 1, Šakiai, Lietuva",
    "geocode_updated_at": "2026-04-10T18:07:43.378Z",
    "status": "resolved"
  },
  {
    "station_id": "23cf4e45156e4543",
    "lat": 56.23851430000001,
    "lon": 22.7508244,
    "display_name": "Plento g. 1, 85380 Akmenė I, Lietuva",
    "query": "Saurida, Akmenės I kaimas Plento g. 1, Lietuva",
    "geocode_updated_at": "2026-04-10T18:07:43.780Z",
    "status": "resolved"
  },
  {
    "station_id": "23d570c93f31b673",
    "lat": 54.5620978,
    "lon": 23.3664081,
    "display_name": "Stoties g., 68261 Marijampolė, Lietuva",
    "query": "Alauša, Marijampolė, Stoties g. 49, 68261, Lietuva",
    "geocode_updated_at": "2026-06-12T10:09:30.910Z",
    "status": "resolved"
  },
  {
    "station_id": "240844b4b971e1ca",
    "lat": 55.7862294,
    "lon": 22.6710268,
    "display_name": "Žemaitės g. 52, Užventis, 86343 Kelmės r. sav., Lietuva",
    "query": "Eniris, Užventis, Žemaitės g. 52, 86343, Lietuva",
    "geocode_updated_at": "2026-06-10T09:47:05.840Z",
    "status": "resolved"
  },
  {
    "station_id": "2426ed4032892ba1",
    "lat": 54.3867365,
    "lon": 24.0329151,
    "display_name": "Santaikos g. 33, 62100 Alytus, Lietuva",
    "query": "Baltic Petroleum, Santaikos g. 33, Alytus, Lietuva",
    "geocode_updated_at": "2026-04-10T18:07:44.167Z",
    "status": "resolved"
  },
  {
    "station_id": "243786f085a8c0d5",
    "lat": 55.737235,
    "lon": 24.3695184,
    "display_name": "Baltijos kl. 33-k, 35118 Panevėžys, Lietuva",
    "query": "Circle K Lietuva, Ūtos k., Baltijos Kelio g. 33, 35189, Lietuva",
    "geocode_updated_at": "2026-06-12T10:09:31.270Z",
    "status": "resolved"
  },
  {
    "station_id": "2475c62f40d7fb32",
    "lat": 54.702966,
    "lon": 25.2881032,
    "display_name": "Rinktinės g. 59, 09207 Vilnius, Lietuva",
    "query": "Baltic Petroleum, Vilnius, Rinktinės g. 59, 09318, Lietuva",
    "geocode_updated_at": "2026-06-12T10:09:31.606Z",
    "status": "resolved"
  },
  {
    "station_id": "2499661767e45a30",
    "lat": 54.4362248,
    "lon": 23.2049896,
    "display_name": "Suvalkijos g. 15, Kušliškiai, 69200 Kalvarijos sav., Lietuva",
    "query": "Saurida, Kušliškių km. Suvalkijos g. 15, Lietuva",
    "geocode_updated_at": "2026-04-10T18:07:44.542Z",
    "status": "resolved"
  },
  {
    "station_id": "24be6bab3940b105",
    "lat": 55.4643408,
    "lon": 21.4702737,
    "display_name": "Tilžės g. 21, 99402 Saugos, Lietuva",
    "query": "Trevena, Tilžės g. 21, Saugų k., Lietuva",
    "geocode_updated_at": "2026-04-10T18:07:44.922Z",
    "status": "resolved"
  },
  {
    "station_id": "25029d50e2f38c40",
    "lat": 55.4956966,
    "lon": 25.5831574,
    "display_name": "J. Basanavičiaus g. 3, 28134 Utena, Lietuva",
    "query": "Circle K, J. Basanavičiaus g. 3, Utena, Lietuva",
    "geocode_updated_at": "2026-04-10T18:07:45.308Z",
    "status": "resolved"
  },
  {
    "station_id": "250531186bc66366",
    "lat": 55.94306229999999,
    "lon": 25.585633,
    "display_name": "Panevėžio g. 7C, 42163 Rokiškis, Lietuva",
    "query": "DVS Topolis, Rokiškis, Panevėžio g. 7C, 42163, Lietuva",
    "geocode_updated_at": "2026-06-12T10:09:31.941Z",
    "status": "resolved"
  },
  {
    "station_id": "255433be82b9ac17",
    "lat": 54.86429080000001,
    "lon": 24.4365127,
    "display_name": "Paukštininkų g. 4, 56110 Kaišiadorys, Lietuva",
    "query": "Emsi, Paukštininkų g.4a, Kaišiadorys, Lietuva",
    "geocode_updated_at": "2026-04-10T18:07:45.673Z",
    "status": "resolved"
  },
  {
    "station_id": "255e19bc24d6f3ba",
    "lat": 54.6566501,
    "lon": 25.2920846,
    "display_name": "Žirnių g. 17, 02120 Vilnius, Lietuva",
    "query": "Neste Lietuva, Žirnių g. 17, Vilnius, Lietuva",
    "geocode_updated_at": "2026-04-10T18:07:46.050Z",
    "status": "resolved"
  },
  {
    "station_id": "256c40b5db5f348b",
    "lat": 56.0147925,
    "lon": 22.9512518,
    "display_name": "159 91, 81189 Kuršėnai, Lietuva",
    "query": "Atsiauta, Vytauto 80, Kuršėnai, Lietuva",
    "geocode_updated_at": "2026-04-10T18:07:46.430Z",
    "status": "resolved"
  },
  {
    "station_id": "259d62d0efead08e",
    "lat": 55.912771,
    "lon": 23.2738954,
    "display_name": "Tilžės g. 25, 78230 Šiauliai, Lietuva",
    "query": "Circle K Lietuva, Šiauliai, Tilžės g. 25, 78229, Lietuva",
    "geocode_updated_at": "2026-06-12T10:09:32.283Z",
    "status": "resolved"
  },
  {
    "station_id": "261c1bb46d448322",
    "lat": 54.9235972,
    "lon": 24.0008066,
    "display_name": "Garažų g. 20, 50314 Kaunas, Lietuva",
    "query": "Saurida, Kaunas Garažų g. 20, Lietuva",
    "geocode_updated_at": "2026-04-10T18:07:46.806Z",
    "status": "resolved"
  },
  {
    "station_id": "261c5988a8fbcd1e",
    "lat": 54.71199,
    "lon": 25.2930465,
    "display_name": "P. Lukšio g. 22, 08222 Vilnius, Lietuva",
    "query": "Neste Lietuva, P. Lukšio g. 22, Vilnius, Lietuva",
    "geocode_updated_at": "2026-04-10T18:07:47.173Z",
    "status": "resolved"
  },
  {
    "station_id": "264b0ba8ac1926c5",
    "lat": 54.66953059999999,
    "lon": 25.279123,
    "display_name": "Sodų g. 22, 01312 Vilnius, Lietuva",
    "query": "Viada, Sodų g. 22, Vilnius, Lietuva",
    "geocode_updated_at": "2026-04-10T18:07:47.550Z",
    "status": "resolved"
  },
  {
    "station_id": "26535e26b6de3ad5",
    "lat": 54.6447198,
    "lon": 25.4918337,
    "display_name": "Juodalaukis, Vilniaus r. sav., Lietuva",
    "query": "Viada, Juodalaukių k. 2, Lietuva",
    "geocode_updated_at": "2026-04-10T18:07:47.964Z",
    "status": "resolved"
  },
  {
    "station_id": "2662add7c2339d2f",
    "lat": 55.8576932,
    "lon": 25.7319221,
    "display_name": "Vytėnų vs 9, Vytėnai, 42255 Rokiškio r. sav., Lietuva",
    "query": "Lašų žemės ūkio bendrovė, Vytėnai, Vytėnų vs 9, 42255, Lietuva",
    "geocode_updated_at": "2026-06-12T10:09:32.627Z",
    "status": "resolved"
  },
  {
    "station_id": "267edfc09828e6dd",
    "lat": 55.3121411,
    "lon": 24.7864754,
    "display_name": "Ežero g. 7, Kurėnai, 20102 Ukmergės r. sav., Lietuva",
    "query": "Circle K, Ežero g. 7, Kurėnų k., Lietuva",
    "geocode_updated_at": "2026-04-10T18:07:48.365Z",
    "status": "resolved"
  },
  {
    "station_id": "26eb1e1a0e833af0",
    "lat": 54.8879714,
    "lon": 23.7840504,
    "display_name": "Kantališkių g., Ringaudai, Kauno r. sav., Lietuva",
    "query": "Stateta, Kantališkių k., Lietuva",
    "geocode_updated_at": "2026-04-10T18:07:48.720Z",
    "status": "resolved"
  },
  {
    "station_id": "26efe4b50b1af40a",
    "lat": 54.6942928,
    "lon": 25.2632751,
    "display_name": "A. Goštauto g. 13, 01108 Vilnius, Lietuva",
    "query": "Circle K, A. Goštauto g. 13, Vilnius, Lietuva",
    "geocode_updated_at": "2026-04-10T18:07:49.135Z",
    "status": "resolved"
  },
  {
    "station_id": "2727788cfdd9cabb",
    "lat": 55.5819673,
    "lon": 21.2852738,
    "display_name": "Šv. Kristoforo g.4, 96357 Dituva, Lietuva",
    "query": "Trevena, Dituvos k., Šv. Kristoforo g. 4, 96357, Lietuva",
    "geocode_updated_at": "2026-06-12T10:09:32.965Z",
    "status": "resolved"
  },
  {
    "station_id": "27d4ab83867061b9",
    "lat": 55.70374160000001,
    "lon": 24.3807901,
    "display_name": "Ramygalos g. 155, 36224 Panevėžys, Lietuva",
    "query": "Viada LT, Panevėžys, Ramygalos g. 155, 36224, Lietuva",
    "geocode_updated_at": "2026-06-12T10:09:33.307Z",
    "status": "resolved"
  },
  {
    "station_id": "289576c41a32e756",
    "lat": 55.5904661,
    "lon": 26.4632957,
    "display_name": "Taikos pr. 47, Visaginas, 31217 Visagino sav., Lietuva",
    "query": "Autograndas, Taikos pr. 47, Lietuva",
    "geocode_updated_at": "2026-04-14T11:34:26.671Z",
    "status": "resolved"
  },
  {
    "station_id": "289cec4569585017",
    "lat": 55.7448668,
    "lon": 24.3462152,
    "display_name": "S. Kerbedžio g. 7, 35104 Panevėžys, Lietuva",
    "query": "Jozita, Panevėžys, S. Kerbedžio g. 7F, 35104, Lietuva",
    "geocode_updated_at": "2026-06-12T10:09:33.648Z",
    "status": "resolved"
  },
  {
    "station_id": "28f128077307cf66",
    "lat": 55.8969226,
    "lon": 21.2443527,
    "display_name": "Vilniaus g. 29B, 97101 Kretinga, Lietuva",
    "query": "Trevena, Vilniaus g. 29B, Kretinga, Lietuva",
    "geocode_updated_at": "2026-04-10T18:07:49.509Z",
    "status": "resolved"
  },
  {
    "station_id": "28f7daaaa8f98935",
    "lat": 56.2675905,
    "lon": 24.3711187,
    "display_name": "Liepų g. 4, Škilinpamūšis, 39421 Pasvalio r. sav., Lietuva",
    "query": "Pakelės namai, Liepų g. 4, Škilinpamūšio k., Lietuva",
    "geocode_updated_at": "2026-04-10T18:07:49.903Z",
    "status": "resolved"
  },
  {
    "station_id": "296701713273c4d9",
    "lat": 54.621318,
    "lon": 25.2429654,
    "display_name": "Eišiškių pl. 82, 02186 Vilnius, Lietuva",
    "query": "Neste Lietuva, Eišiškių pl. 82, Vilnius, Lietuva",
    "geocode_updated_at": "2026-04-10T18:07:50.314Z",
    "status": "resolved"
  },
  {
    "station_id": "29cd9cf017960a7f",
    "lat": 54.7041577,
    "lon": 25.2670451,
    "display_name": "Geležinio Vilko g. 41, 09300 Vilnius, Lietuva",
    "query": "Neste Lietuva, Vilnius, Geležinio Vilko g. 41, 09300, Lietuva",
    "geocode_updated_at": "2026-06-12T10:09:33.989Z",
    "status": "resolved"
  },
  {
    "station_id": "29df13dcebecc424",
    "lat": 54.920163,
    "lon": 23.9487779,
    "display_name": "Statybininkų g. 3A, 50124 Kaunas, Lietuva",
    "query": "Viada LT, Kaunas, Statybininkų g. 3A, 50124, Lietuva",
    "geocode_updated_at": "2026-06-12T10:09:34.330Z",
    "status": "resolved"
  },
  {
    "station_id": "29e39095ecbddc2d",
    "lat": 54.7710625,
    "lon": 23.765631,
    "display_name": "Liepų g. 20, 59290 Mauručiai, Lietuva",
    "query": "Saurida, Mauručiai, Liepų g. 20, 59290, Lietuva",
    "geocode_updated_at": "2026-06-12T10:09:34.682Z",
    "status": "resolved"
  },
  {
    "station_id": "29ed152614b2f1f4",
    "lat": 54.7102217,
    "lon": 25.1620567,
    "display_name": "Pajautos g. 31, Vilnius, 06200 Vilniaus m. sav., Lietuva",
    "query": "Emsi, Vilnius, Pajautos g. 31, 06200, Lietuva",
    "geocode_updated_at": "2026-06-12T10:09:35.015Z",
    "status": "resolved"
  },
  {
    "station_id": "2a0f990ab6ccb2df",
    "lat": 55.2407789,
    "lon": 22.3052917,
    "display_name": "Pramonės g. 1, 72338 Tauragė, Lietuva",
    "query": "Viada, Pramonės g. 1, Tauragė, Lietuva",
    "geocode_updated_at": "2026-04-10T18:07:50.693Z",
    "status": "resolved"
  },
  {
    "station_id": "2a266ec1cc53d22e",
    "lat": 55.93894700000001,
    "lon": 21.8801181,
    "display_name": "Pramogų g. 4-k, Truikiai, 90110 Plungės r. sav., Lietuva",
    "query": "VVARFF (Circle K), Pramogų g. 4, Truikių k., Lietuva",
    "geocode_updated_at": "2026-04-10T18:07:51.073Z",
    "status": "resolved"
  },
  {
    "station_id": "2a2c2d354fa47e9d",
    "lat": 54.9038912,
    "lon": 23.8353794,
    "display_name": "Marvelės g. 132, 46206 Kaunas, Lietuva",
    "query": "Boost Petrol, Marvelės g. 132, Kaunas, Lietuva",
    "geocode_updated_at": "2026-04-10T18:07:51.450Z",
    "status": "resolved"
  },
  {
    "station_id": "2a6377c2e7513736",
    "lat": 55.7317201,
    "lon": 24.303218,
    "display_name": "Klaipėdos g. 162D, 35193 Panevėžys, Lietuva",
    "query": "Orlen, Klaipėdos g. 162 D, Panevėžys, Lietuva",
    "geocode_updated_at": "2026-04-10T18:07:51.831Z",
    "status": "resolved"
  },
  {
    "station_id": "2a703d10a09edac7",
    "lat": 55.9445314,
    "lon": 25.5856697,
    "display_name": "Panevėžio g. 5, 42163 Rokiškis, Lietuva",
    "query": "Viada LT, Rokiškis, Panevėžio g. 5, 42163, Lietuva",
    "geocode_updated_at": "2026-06-12T10:09:35.356Z",
    "status": "resolved"
  },
  {
    "station_id": "2ae1ec8497f8c6b3",
    "lat": 54.6772199,
    "lon": 25.255633,
    "display_name": "Kedrų g. 2, 03159 Vilnius, Lietuva",
    "query": "Neste Lietuva, Kedrų g. 2, Vilnius, Lietuva",
    "geocode_updated_at": "2026-04-10T18:07:52.206Z",
    "status": "resolved"
  },
  {
    "station_id": "2b0323e740b8f0c4",
    "lat": 55.9564172,
    "lon": 23.3085317,
    "display_name": "V. Bielskio g. 47A, 76159 Šiauliai, Lietuva",
    "query": "Apsaga, Šiauliai, V. Bielskio g. 47A, 76159, Lietuva",
    "geocode_updated_at": "2026-06-12T10:09:35.699Z",
    "status": "resolved"
  },
  {
    "station_id": "2b2eef77fbc38ff8",
    "lat": 54.7360872,
    "lon": 25.2312097,
    "display_name": "Ukmergės g. 296, 12105 Vilnius, Lietuva",
    "query": "Neste Lietuva, Vilnius, Ukmergės g. 296, 12105, Lietuva",
    "geocode_updated_at": "2026-06-12T10:09:36.029Z",
    "status": "resolved"
  },
  {
    "station_id": "2b428581a0bd3968",
    "lat": 54.9264215,
    "lon": 24.0599103,
    "display_name": "Ateities pl. 50B, 52106 Kaunas, Lietuva",
    "query": "Neste Lietuva, Ateities pl. 50B, Kaunas, Lietuva",
    "geocode_updated_at": "2026-04-10T18:07:52.593Z",
    "status": "resolved"
  },
  {
    "station_id": "2b69907393fefb0a",
    "lat": 56.3161359,
    "lon": 22.3411853,
    "display_name": "Laisvės g. 50, 89223 Mažeikiai, Lietuva",
    "query": "Adukesta, Laisvės g. 50, Maciuičių k., Lietuva",
    "geocode_updated_at": "2026-04-10T18:07:52.975Z",
    "status": "resolved"
  },
  {
    "station_id": "2b94e95f3a14392e",
    "lat": 56.2019889,
    "lon": 24.7377583,
    "display_name": "Pasvalio g. 1B, 41132 Biržai, Lietuva",
    "query": "Viada LT, Biržai, Pasvalio g. 1B, 41132, Lietuva",
    "geocode_updated_at": "2026-06-12T10:09:36.373Z",
    "status": "resolved"
  },
  {
    "station_id": "2b96c2ef29217da1",
    "lat": 56.2582033,
    "lon": 22.3094884,
    "display_name": "Laukų g. 2C, 89330 Tirkšliai, Lietuva",
    "query": "Visvilas, Laukų g. 2C.,Tirkšlių m., Lietuva",
    "geocode_updated_at": "2026-04-30T08:46:41.285Z",
    "status": "resolved"
  },
  {
    "station_id": "2bd6c0cbb2897dcd",
    "lat": 54.92346509999999,
    "lon": 24.0721069,
    "display_name": "Palemono g. 171, 52107 Kaunas, Lietuva",
    "query": "Alauša, Palemono g. 171, Kaunas, Lietuva",
    "geocode_updated_at": "2026-04-10T18:07:53.356Z",
    "status": "resolved"
  },
  {
    "station_id": "2be30516a51254f8",
    "lat": 54.1779429,
    "lon": 23.493625,
    "display_name": "Janaslavas, Lietuva",
    "query": "Emsi, Janaslavo k.11, Lazdijų sen., Lietuva",
    "geocode_updated_at": "2026-04-10T18:07:53.737Z",
    "status": "resolved"
  },
  {
    "station_id": "2c1d5687632b87b1",
    "lat": 54.8494681,
    "lon": 23.9670452,
    "display_name": "Marijampolės pl. 29, 45438 Kaunas, Lietuva",
    "query": "Viada, Marijampolės pl. 29, Kaunas, Lietuva",
    "geocode_updated_at": "2026-04-10T18:07:54.111Z",
    "status": "resolved"
  },
  {
    "station_id": "2c799a7292f2e432",
    "lat": 54.7534623,
    "lon": 25.2117448,
    "display_name": "Ukmergės g. 437, Bukiškis, 14183 Vilniaus r. sav., Lietuva",
    "query": "Emsi, Bukiškis, Ukmergės g. 437, 14183, Lietuva",
    "geocode_updated_at": "2026-06-12T10:09:36.708Z",
    "status": "resolved"
  },
  {
    "station_id": "2c86a958fd17c2a3",
    "lat": 56.2076124,
    "lon": 24.7707516,
    "display_name": "Jaunimo g. 2, 41168 Biržai, Lietuva",
    "query": "Emsi, Jaunimo g.2a, Biržai, Lietuva",
    "geocode_updated_at": "2026-04-10T18:07:54.499Z",
    "status": "resolved"
  },
  {
    "station_id": "2c9fe43c9d1fb7d3",
    "lat": 55.7431766,
    "lon": 24.3421638,
    "display_name": "S. Kerbedžio g. 2, 35135 Panevėžys, Lietuva",
    "query": "Deliuvis, S.Kerbedžio 2, Panevėžys, Lietuva",
    "geocode_updated_at": "2026-04-10T18:07:54.876Z",
    "status": "resolved"
  },
  {
    "station_id": "2cc94c0a6f2da1ab",
    "lat": 54.3924736,
    "lon": 23.1971685,
    "display_name": "69232, Lietuva",
    "query": "Saurida, 69232, Kreivukės k., Lietuva",
    "geocode_updated_at": "2026-06-12T10:09:37.040Z",
    "status": "resolved"
  },
  {
    "station_id": "2cd843a87d145242",
    "lat": 55.9011961,
    "lon": 21.0816895,
    "display_name": "Vilimiškės kl., Palanga, Palangos m. sav., Lietuva",
    "query": "Orlen Baltics Retail, 97220, Vilimiškės k., Lietuva",
    "geocode_updated_at": "2026-06-12T10:09:37.383Z",
    "status": "resolved"
  },
  {
    "station_id": "2cf1fac286249d5e",
    "lat": 55.7276913,
    "lon": 24.3488015,
    "display_name": "Klaipėdos g. 66, 35194 Panevėžys, Lietuva",
    "query": "Neste Lietuva, Panevėžys, Klaipėdos g. 66, 35193, Lietuva",
    "geocode_updated_at": "2026-06-12T10:09:37.723Z",
    "status": "resolved"
  },
  {
    "station_id": "2d1b12fc37b5ea0f",
    "lat": 55.8146338,
    "lon": 23.5531175,
    "display_name": "Gedimino g. 50c, 82168 Radviliškis, Lietuva",
    "query": "Saurida, Velžių km .Radviliškio plentas 2, Lietuva",
    "geocode_updated_at": "2026-04-10T18:07:55.249Z",
    "status": "resolved"
  },
  {
    "station_id": "2dcd87a670b7c94c",
    "lat": 54.818884,
    "lon": 23.8581528,
    "display_name": "Baltijos g. 1, Garliava, 53289 Kauno r. sav., Lietuva",
    "query": "Circle K, Baltijos g. 1, Mastaičių k., Lietuva",
    "geocode_updated_at": "2026-04-10T18:07:55.618Z",
    "status": "resolved"
  },
  {
    "station_id": "2ddb5ac9e80d0030",
    "lat": 55.7193075,
    "lon": 21.1400044,
    "display_name": "Priestočio g. 26, Klaipėda, 92228 Klaipėdos m. sav., Lietuva",
    "query": "Jozita, Priestočio g. 26, Klaipėda, Lietuva",
    "geocode_updated_at": "2026-04-10T18:07:55.982Z",
    "status": "resolved"
  },
  {
    "station_id": "2e49278504f8666a",
    "lat": 54.93842,
    "lon": 23.898327,
    "display_name": "Islandijos pl. 32, 47446 Kaunas, Lietuva",
    "query": "Circle K, Islandijos pl. 32, Kaunas, Lietuva",
    "geocode_updated_at": "2026-04-10T18:07:56.369Z",
    "status": "resolved"
  },
  {
    "station_id": "2e642931e3dd6b16",
    "lat": 55.2407789,
    "lon": 22.3052917,
    "display_name": "Pramonės g. 1, 72338 Tauragė, Lietuva",
    "query": "Viada LT, Tauragė, Pramonės g. 1, 72338, Lietuva",
    "geocode_updated_at": "2026-06-12T10:09:38.073Z",
    "status": "resolved"
  },
  {
    "station_id": "2ee4b1161f1942a0",
    "lat": 55.5186982,
    "lon": 23.7736292,
    "display_name": "Baisogalos g. 5, Gudžiūnai, 58267 Kėdainių r. sav., Lietuva",
    "query": "Viada LT, Gudžiūnų k., Baisogalos g. 5, 58267, Lietuva",
    "geocode_updated_at": "2026-06-12T10:09:38.406Z",
    "status": "resolved"
  },
  {
    "station_id": "2efff001853452cb",
    "lat": 55.7395662,
    "lon": 25.8524845,
    "display_name": "V. Striogos g. 4A, Padustėlis, 32312 Zarasų r. sav., Lietuva",
    "query": "Baltic Petroleum, Padustėlio k., V. Striogos g. 4A, 32306, Lietuva",
    "geocode_updated_at": "2026-06-12T10:09:38.753Z",
    "status": "resolved"
  },
  {
    "station_id": "2f006624b56b4ab0",
    "lat": 54.403078,
    "lon": 24.0371053,
    "display_name": "Kauno g. 73, Alytus, 62107 Alytaus m. sav., Lietuva",
    "query": "Orlen Baltics Retail, Alytus, Kauno g. 73, 62107, Lietuva",
    "geocode_updated_at": "2026-06-12T10:09:39.084Z",
    "status": "resolved"
  },
  {
    "station_id": "2f00e8d679d8d11e",
    "lat": 55.6568656,
    "lon": 21.1837445,
    "display_name": "Jūrininkų pr. 29, 95225 Klaipėda, Lietuva",
    "query": "Saurida, Klaipėda, Jūrininkų pr. 29, 95225, Lietuva",
    "geocode_updated_at": "2026-06-12T10:09:39.426Z",
    "status": "resolved"
  },
  {
    "station_id": "2f015e6abade2e4b",
    "lat": 55.2362221,
    "lon": 22.2968029,
    "display_name": "Pramonės g. 10a, 72323 Tauragė, Lietuva",
    "query": "Madalva, Pramonės g.10A, Tauragė, Lietuva",
    "geocode_updated_at": "2026-04-10T18:07:56.795Z",
    "status": "resolved"
  },
  {
    "station_id": "2f08cccaa18b720c",
    "lat": 55.96078240000001,
    "lon": 23.2405273,
    "display_name": "Plento g. 2, 76322 Toliočiai, Lietuva",
    "query": "Jozita, Toliočiai, Plento g. 2B, 76322, Lietuva",
    "geocode_updated_at": "2026-06-12T10:09:39.769Z",
    "status": "resolved"
  },
  {
    "station_id": "2f2c16c0692abbd4",
    "lat": 54.66621180000001,
    "lon": 23.9469714,
    "display_name": "Kauno plentas 40, 59149 Mačiūnai, Lietuva",
    "query": "Viada, Kauno pl. 40, Mačiūnų k., Lietuva",
    "geocode_updated_at": "2026-04-10T18:07:57.201Z",
    "status": "resolved"
  },
  {
    "station_id": "2f4683ec6f22be32",
    "lat": 55.8274136,
    "lon": 24.9856884,
    "display_name": "Panevėžio g. 5, 40134 Kupiškis, Lietuva",
    "query": "Velseka, Kupiškis, Panevėžio g. 5, 40134, Lietuva",
    "geocode_updated_at": "2026-06-12T10:09:40.113Z",
    "status": "resolved"
  },
  {
    "station_id": "2f60d40f780c895f",
    "lat": 54.86429080000001,
    "lon": 24.4365127,
    "display_name": "Paukštininkų g. 4, 56110 Kaišiadorys, Lietuva",
    "query": "Emsi, Kaišiadorys, Paukštininkų g. 4a, 56160, Lietuva",
    "geocode_updated_at": "2026-06-12T10:09:40.455Z",
    "status": "resolved"
  },
  {
    "station_id": "2f9586d1fd3a18a1",
    "lat": 54.8494681,
    "lon": 23.9670452,
    "display_name": "Marijampolės pl. 29, 45438 Kaunas, Lietuva",
    "query": "Viada LT, Kaunas, Marijampolės pl. 29, 45438, Lietuva",
    "geocode_updated_at": "2026-06-12T10:09:40.803Z",
    "status": "resolved"
  },
  {
    "station_id": "2fd25366ac48dad1",
    "lat": 55.1254716,
    "lon": 26.1453088,
    "display_name": "Vilniaus g. 50A, Švenčionys, 18123 Švenčionių r. sav., Lietuva",
    "query": "Viada LT, Švenčionys, Vilniaus g. 50A, 18123, Lietuva",
    "geocode_updated_at": "2026-06-12T10:09:41.146Z",
    "status": "resolved"
  },
  {
    "station_id": "2ff0ffc0129242d7",
    "lat": 55.0253782,
    "lon": 24.9952306,
    "display_name": "Paširvintis, Lietuva",
    "query": "Alauša, Paširvinčio k., Paširvio g. 1, 19128, Lietuva",
    "geocode_updated_at": "2026-06-12T10:09:41.473Z",
    "status": "resolved"
  },
  {
    "station_id": "304d11951c8356ad",
    "lat": 54.8554539,
    "lon": 24.4419732,
    "display_name": "Gedimino g. 135, 56173 Kaišiadorys, Lietuva",
    "query": "Viada, Gedimino g. 135, Kaišiadorys, Lietuva",
    "geocode_updated_at": "2026-04-10T18:07:57.584Z",
    "status": "resolved"
  },
  {
    "station_id": "304f8c372d8563cb",
    "lat": 54.6649896,
    "lon": 25.2465984,
    "display_name": "Vilkpėdės g. 2, 03151 Vilnius, Lietuva",
    "query": "Viada, Vilkpėdės g. 2, Vilnius, Lietuva",
    "geocode_updated_at": "2026-04-10T18:07:57.950Z",
    "status": "resolved"
  },
  {
    "station_id": "30a345e040565709",
    "lat": 54.7224395,
    "lon": 25.2710137,
    "display_name": "J. Kazlausko g. 33, 08314 Vilnius, Lietuva",
    "query": "Skulas, J.Kazlausko g. 33, Vilnius, Lietuva",
    "geocode_updated_at": "2026-06-10T09:47:06.219Z",
    "status": "resolved"
  },
  {
    "station_id": "30a600e09d0d3702",
    "lat": 54.8808333,
    "lon": 23.8941667,
    "display_name": "Veiverių g. 49a, 46336 Kaunas, Lietuva",
    "query": "Circle K, Veiverių g. 49A, Kaunas, Lietuva",
    "geocode_updated_at": "2026-04-10T18:07:58.324Z",
    "status": "resolved"
  },
  {
    "station_id": "30aeeac9de11cde9",
    "lat": 54.0945549,
    "lon": 23.8715409,
    "display_name": "Merkinės g. 37, 67280 Savanoriai, Lietuva",
    "query": "Baltic Petroleum, Leipalingis, Merkinės g. 37, 67280, Lietuva",
    "geocode_updated_at": "2026-06-12T10:09:41.817Z",
    "status": "resolved"
  },
  {
    "station_id": "30c17a9b339a0635",
    "lat": 54.5556873,
    "lon": 23.3752979,
    "display_name": "Vasaros g. 15, 68266 Marijampolė, Lietuva",
    "query": "Baltic Petroleum, Marijampolė, Vasaros g. 15, 68266, Lietuva",
    "geocode_updated_at": "2026-06-12T10:09:42.154Z",
    "status": "resolved"
  },
  {
    "station_id": "31077115da014ac9",
    "lat": 54.7369256,
    "lon": 25.2321958,
    "display_name": "Ukmergės g. 319, Vilnius, 06305 Vilniaus m. sav., Lietuva",
    "query": "Orlen Baltics Retail, Vilnius, Ukmergės g. 319, 06305, Lietuva",
    "geocode_updated_at": "2026-06-12T10:09:42.492Z",
    "status": "resolved"
  },
  {
    "station_id": "3119709c14669950",
    "lat": 54.9333665,
    "lon": 23.9434658,
    "display_name": "Ašigalio g. 1, 49160 Kaunas, Lietuva",
    "query": "Skulas, Kaunas, Ašigalio g. 1A, 49161, Lietuva",
    "geocode_updated_at": "2026-06-12T10:09:42.833Z",
    "status": "resolved"
  },
  {
    "station_id": "311d9d2219dc3612",
    "lat": 55.2769363,
    "lon": 23.9558861,
    "display_name": "J. Basanavičiaus g. 95B, 57352 Kėdainiai, Lietuva",
    "query": "Baltic Petroleum, J. Basanavičiaus g. 95B, Kėdainiai, Lietuva",
    "geocode_updated_at": "2026-04-10T18:07:58.697Z",
    "status": "resolved"
  },
  {
    "station_id": "317a1913e4ba575e",
    "lat": 55.661203,
    "lon": 21.1762255,
    "display_name": "Taikos pr. 124, 94286 Klaipėda, Lietuva",
    "query": "Emsi, Taikos pr.124, Klaipėda, Lietuva",
    "geocode_updated_at": "2026-04-10T18:07:59.077Z",
    "status": "resolved"
  },
  {
    "station_id": "31ab7158c0a39dda",
    "lat": 55.5848999,
    "lon": 24.878201,
    "display_name": "Nepriklausomybės a. 32, Troškūnai, 29306 Anykščių r. sav., Lietuva",
    "query": "Narjanta, Vilniaus g. 32, Troškūnai, Lietuva",
    "geocode_updated_at": "2026-04-10T18:07:59.462Z",
    "status": "resolved"
  },
  {
    "station_id": "31b70f3f19ddc6f5",
    "lat": 55.6924129,
    "lon": 21.1536679,
    "display_name": "Taikos pr. 61b, 91182 Klaipėda, Lietuva",
    "query": "Circle K, Taikos pr. 61B, Klaipėda, Lietuva",
    "geocode_updated_at": "2026-04-10T18:07:59.839Z",
    "status": "resolved"
  },
  {
    "station_id": "31cd93d645bbb042",
    "lat": 55.9154815,
    "lon": 21.0781248,
    "display_name": "Klaipėdos pl. 44, 00111 Palanga, Lietuva",
    "query": "Baltic Petroleum, Klaipėdos pl. 44, Palanga, Lietuva",
    "geocode_updated_at": "2026-04-10T18:08:00.217Z",
    "status": "resolved"
  },
  {
    "station_id": "31cfb2c946204f9f",
    "lat": 55.6696904,
    "lon": 21.158617,
    "display_name": "Minijos g. 152, 93263 Klaipėda, Lietuva",
    "query": "Trevena, Minijos g. 152A, Klaipėda, Lietuva",
    "geocode_updated_at": "2026-04-10T18:08:00.582Z",
    "status": "resolved"
  },
  {
    "station_id": "3226225a7dc37241",
    "lat": 55.70223,
    "lon": 21.137985,
    "display_name": "Sausio 15-osios g. 2, 91200 Klaipėda, Lietuva",
    "query": "Circle K, Sausio 15-osios g. 2, Klaipėda, Lietuva",
    "geocode_updated_at": "2026-04-10T18:08:00.961Z",
    "status": "resolved"
  },
  {
    "station_id": "325ac38c6858087a",
    "lat": 54.9038912,
    "lon": 23.8353794,
    "display_name": "Marvelės g. 132, 46206 Kaunas, Lietuva",
    "query": "Boost Petrol, Kaunas, Marvelės g. 132, 46230, Lietuva",
    "geocode_updated_at": "2026-06-10T09:47:06.610Z",
    "status": "resolved"
  },
  {
    "station_id": "326493ad9f0df2e4",
    "lat": 55.92020119999999,
    "lon": 23.4259387,
    "display_name": "Plento g. 2, 80114 Kairiai, Lietuva",
    "query": "Alauša, Plento g. 2B, Kairiai, Lietuva",
    "geocode_updated_at": "2026-04-10T18:08:01.343Z",
    "status": "resolved"
  },
  {
    "station_id": "327d8e091698da97",
    "lat": 54.7119605,
    "lon": 25.2705897,
    "display_name": "Geležinio Vilko g. 63, Vilnius, 08104 Vilniaus m. sav., Lietuva",
    "query": "Neste Lietuva, Vilnius, Geležinio Vilko g. 63, 08104, Lietuva",
    "geocode_updated_at": "2026-06-12T10:09:43.163Z",
    "status": "resolved"
  },
  {
    "station_id": "32aa07c249d5da71",
    "lat": 54.6459779,
    "lon": 25.6250893,
    "display_name": "Miško g. 6, 13146 Kena, Lietuva",
    "query": "Kenaoil, Kena, Miško g. 6, 13146, Lietuva",
    "geocode_updated_at": "2026-06-12T10:09:43.514Z",
    "status": "resolved"
  },
  {
    "station_id": "32addb4aaf9c601a",
    "lat": 56.31846600000001,
    "lon": 22.8856049,
    "display_name": "V. Kudirkos g. 21A, 85145 Naujoji Akmenė, Lietuva",
    "query": "Baltic Petroleum, V. Kudirkos g. 21A, N. Akmenė, Lietuva",
    "geocode_updated_at": "2026-04-10T18:08:01.728Z",
    "status": "resolved"
  },
  {
    "station_id": "33c7a9764f973938",
    "lat": 54.32043669999999,
    "lon": 23.1399587,
    "display_name": "Europos g. 17, Salaperaugis, 69286 Kalvarijos sav., Lietuva",
    "query": "AS 24 Lietuva, Salaperaugio k, Europos g. 17, 69286, Lietuva",
    "geocode_updated_at": "2026-06-12T10:09:43.862Z",
    "status": "resolved"
  },
  {
    "station_id": "33d549f3c4390606",
    "lat": 54.72082270000001,
    "lon": 25.2848276,
    "display_name": "Kalvarijų g. 204G, Vilnius, 02300 Vilniaus m. sav., Lietuva",
    "query": "Alauša, Kalvarijų g. 204G, Vilnius, Lietuva",
    "geocode_updated_at": "2026-04-10T18:08:02.099Z",
    "status": "resolved"
  },
  {
    "station_id": "341ffe3ab5936766",
    "lat": 54.3846073,
    "lon": 24.0502657,
    "display_name": "Ulonų g. 33B, 62163 Alytus, Lietuva",
    "query": "Viada LT, Alytus, Ulonų g. 33B, 62136, Lietuva",
    "geocode_updated_at": "2026-06-12T10:09:44.198Z",
    "status": "resolved"
  },
  {
    "station_id": "34bc22ac3d9e95c3",
    "lat": 55.1199485,
    "lon": 26.1312768,
    "display_name": "Aukštaičių g. 2A, Cirkliškis, 18122 Švenčionių r. sav., Lietuva",
    "query": "Propano ir butano dujų centras, Aukštaičių g. 2a, Cirkliškio k., Lietuva",
    "geocode_updated_at": "2026-04-10T18:08:02.484Z",
    "status": "resolved"
  },
  {
    "station_id": "34e753d794bc1851",
    "lat": 55.0768044,
    "lon": 22.7520303,
    "display_name": "Muitinės g. 34A, Jurbarkas, 74106 Jurbarko r. sav., Lietuva",
    "query": "GM Manufacturing Lithuania, Jurbarkas, Muitinės g. 34A, 74106, Lietuva",
    "geocode_updated_at": "2026-06-12T10:09:44.526Z",
    "status": "resolved"
  },
  {
    "station_id": "34f6bb9bcd2df41e",
    "lat": 55.137806,
    "lon": 26.155728,
    "display_name": "Mokyklos g. 23, Švenčionys, 18111 Švenčionių r. sav., Lietuva",
    "query": "RV, Mokyklos g. 23, Švenčionys, Lietuva",
    "geocode_updated_at": "2026-04-10T18:08:02.871Z",
    "status": "resolved"
  },
  {
    "station_id": "3522d1155fcbead3",
    "lat": 54.9264215,
    "lon": 24.0599103,
    "display_name": "Ateities pl. 50B, 52106 Kaunas, Lietuva",
    "query": "Neste Lietuva, Kaunas, Ateities pl. 50B, 52106, Lietuva",
    "geocode_updated_at": "2026-06-12T10:09:44.888Z",
    "status": "resolved"
  },
  {
    "station_id": "352bb1f5854645e3",
    "lat": 55.65652040000001,
    "lon": 21.1824872,
    "display_name": "Jūrininkų pr. 31, 95225 Klaipėda, Lietuva",
    "query": "Circle K, Jūrininkų pr. 31, Klaipėda, Lietuva",
    "geocode_updated_at": "2026-04-10T18:08:03.239Z",
    "status": "resolved"
  },
  {
    "station_id": "353173949c88dd6a",
    "lat": 54.4081686,
    "lon": 24.016634,
    "display_name": "Ūdrijos g. 2, 62402 Alytus, Lietuva",
    "query": "Emsi, Ūdrijos g.2, Alytus, Lietuva",
    "geocode_updated_at": "2026-04-10T18:08:03.612Z",
    "status": "resolved"
  },
  {
    "station_id": "35322905eb2c9187",
    "lat": 56.2235282,
    "lon": 23.5981685,
    "display_name": "Vilniaus g. 72, 84172 Joniškis, Lietuva",
    "query": "Baltic Petroleum, Vilniaus g. 72, Joniškis, Lietuva",
    "geocode_updated_at": "2026-04-10T18:08:04.012Z",
    "status": "resolved"
  },
  {
    "station_id": "3583a50591915796",
    "lat": 55.9440799,
    "lon": 23.3311358,
    "display_name": "Tilžės g. 274, 76201 Šiauliai, Lietuva",
    "query": "Viada LT, Šiauliai, Tilžės g. 274, 76201, Lietuva",
    "geocode_updated_at": "2026-06-12T10:09:45.238Z",
    "status": "resolved"
  },
  {
    "station_id": "35b6268df6c12608",
    "lat": 54.87856710000001,
    "lon": 23.9341377,
    "display_name": "A. Juozapavičiaus pr. 90, 45267 Kaunas, Lietuva",
    "query": "Viada, A. Juozapavičiaus pr. 90, Kaunas, Lietuva",
    "geocode_updated_at": "2026-04-10T18:08:04.374Z",
    "status": "resolved"
  },
  {
    "station_id": "35b7849f82e1a2a0",
    "lat": 54.9271623,
    "lon": 23.9991317,
    "display_name": "Partizanų g. 87, Kaunas, 50312 Kauno m. sav., Lietuva",
    "query": "Jozita, Kaunas, Partizanų g. 87G, 50312, Lietuva",
    "geocode_updated_at": "2026-06-12T10:09:45.577Z",
    "status": "resolved"
  },
  {
    "station_id": "3628372287a26119",
    "lat": 54.6441521,
    "lon": 25.2070513,
    "display_name": "Savanorių pr. 220A, 02300 Vilnius, Lietuva",
    "query": "Neste Lietuva, Savanorių pr. 220A, Vilnius, Lietuva",
    "geocode_updated_at": "2026-04-10T18:08:04.754Z",
    "status": "resolved"
  },
  {
    "station_id": "363b987a63394806",
    "lat": 55.2717324,
    "lon": 23.3366087,
    "display_name": "60298, Lietuva",
    "query": "Emsi, Raščių k. 1A, 60298, Lietuva",
    "geocode_updated_at": "2026-06-12T10:09:45.906Z",
    "status": "resolved"
  },
  {
    "station_id": "36529dabe00c2a21",
    "lat": 55.169438,
    "lon": 23.881275,
    "display_name": "Lietuva",
    "query": "V.Marcinkevičiaus IĮ, Bažnyčios 7., Pavilnučio k., Lietuva",
    "geocode_updated_at": "2026-05-08T11:51:13.169Z",
    "status": "resolved"
  },
  {
    "station_id": "3659da2249bf21e8",
    "lat": 54.9174286,
    "lon": 25.3374576,
    "display_name": "15130, Lietuva",
    "query": "Eniris, Kalnuotės 1 k. 15130, Lietuva",
    "geocode_updated_at": "2026-06-12T10:09:46.228Z",
    "status": "resolved"
  },
  {
    "station_id": "3664a605953a2a65",
    "lat": 54.7015391,
    "lon": 25.2637273,
    "display_name": "Geležinio Vilko g. 37A, 08104 Vilnius, Lietuva",
    "query": "Neste Lietuva, Vilnius, Geležinio Vilko g. 37A, 08104, Lietuva",
    "geocode_updated_at": "2026-06-12T10:09:46.554Z",
    "status": "resolved"
  },
  {
    "station_id": "36810911d97584ee",
    "lat": 54.7640008,
    "lon": 25.1966338,
    "display_name": "Ožiarūčių g 1A, Bukiškis, 14185 Vilniaus r. sav., Lietuva",
    "query": "Viada LT, Avižienių k., Ožiarūčių g. 1A, 14185, Lietuva",
    "geocode_updated_at": "2026-06-12T10:09:46.904Z",
    "status": "resolved"
  },
  {
    "station_id": "36a53ab8e8b93e09",
    "lat": 55.8818666,
    "lon": 23.2052724,
    "display_name": "Ilgoji g. 1, 80184 Aukštelkė, Lietuva",
    "query": "Viada LT, Aukštelkės k., Ilgoji g. 1, 80184, Lietuva",
    "geocode_updated_at": "2026-06-12T10:09:47.244Z",
    "status": "resolved"
  },
  {
    "station_id": "36a825a4bd6a7f06",
    "lat": 54.894036,
    "lon": 24.00687,
    "display_name": "R. Kalantos g. 159, 52314 Kaunas, Lietuva",
    "query": "Circle K, R. Kalantos g. 159, Kaunas, Lietuva",
    "geocode_updated_at": "2026-04-10T18:08:05.159Z",
    "status": "resolved"
  },