[
  {
    "station_id": "009d82999aabd1b4",
    "lat": 55.5948632,
    "lon": 26.4565986,
    "display_name": "Energetikų g. 23B, 31107 Visaginas, Lietuva",
    "query": "Viada, Taikos pr. 23B, Visaginas, Lietuva",
    "geocode_updated_at": "2026-04-10T18:07:06.589Z",
    "status": "resolved"
  },
  {
    "station_id": "00d67077c92a9f32",
    "lat": 56.0485244,
    "lon": 24.3845234,
    "display_name": "Brazdigalos g., Pasvalys, 39171 Pasvalio r. sav., Lietuva",
    "query": "Viada, Brazdigalos k. 1, Lietuva",
    "geocode_updated_at": "2026-04-10T18:07:07.008Z",
    "status": "resolved"
  },
  {
    "station_id": "0199cd7875b9eb18",
    "lat": 55.905374,
    "lon": 23.2601549,
    "display_name": "Gegužių g. 26, 78348 Šiauliai, Lietuva",
    "query": "Viada, Gegužių g. 26, Šiauliai, Lietuva",
    "geocode_updated_at": "2026-04-10T18:07:07.409Z",
    "status": "resolved"
  },
  {
    "station_id": "01b2ed2e0c16b240",
    "lat": 56.00058259999999,
    "lon": 22.2472638,
    "display_name": "Mažeikių g. 7A, Telšiai, 87101 Telšių r. sav., Lietuva",
    "query": "Gazimpeksas, Mažeikių g. 7A, Telšiai, Lietuva",
    "geocode_updated_at": "2026-04-10T18:07:07.808Z",
    "status": "resolved"
  },
  {
    "station_id": "02694b0ce0025c29",
    "lat": 54.57624759999999,
    "lon": 23.371213,
    "display_name": "Kauno g. 130, 68230 Marijampolė, Lietuva",
    "query": "Circle K, Kauno g. 130, Marijampolė, Lietuva",
    "geocode_updated_at": "2026-04-10T18:07:08.207Z",
    "status": "resolved"
  },
  {
    "station_id": "02a956d7a48f4a1c",
    "lat": 54.7214876,
    "lon": 25.2951922,
    "display_name": "Verkių g. 52, 09109 Vilnius, Lietuva",
    "query": "Viada, Verkių g. 52, Vilnius, Lietuva",
    "geocode_updated_at": "2026-04-10T18:07:08.586Z",
    "status": "resolved"
  },
  {
    "station_id": "037d0e8f2f372525",
    "lat": 55.6568656,
    "lon": 21.1837445,
    "display_name": "Jūrininkų pr. 29, 95225 Klaipėda, Lietuva",
    "query": "Saurida, Klaipėda Jūrininkų pr. 29, Lietuva",
    "geocode_updated_at": "2026-04-10T18:07:08.973Z",
    "status": "resolved"
  },
  {
    "station_id": "047fb18c09c9d059",
    "lat": 54.64106390000001,
    "lon": 25.1841823,
    "display_name": "Savanorių pr. 225, Vilnius, 02300 Vilniaus m. sav., Lietuva",
    "query": "Emsi, Savanorių 225, Vilnius, Lietuva",
    "geocode_updated_at": "2026-04-10T18:07:09.362Z",
    "status": "resolved"
  },
  {
    "station_id": "04da36512ac63f78",
    "lat": 54.5780726,
    "lon": 23.377749,
    "display_name": "Statybininkų g. 8b, 68108 Marijampolė, Lietuva",
    "query": "Saurida, Marijampolė Statybininkų g. 8, Lietuva",
    "geocode_updated_at": "2026-04-10T18:07:09.741Z",
    "status": "resolved"
  },
  {
    "station_id": "052ba1f87a69214b",
    "lat": 54.64812269999999,
    "lon": 25.2124476,
    "display_name": "Savanorių pr. 187, 02300 Vilnius, Lietuva",
    "query": "Neste Lietuva, Savanorių pr. 187, Vilnius, Lietuva",
    "geocode_updated_at": "2026-04-10T18:07:10.180Z",
    "status": "resolved"
  },
  {
    "station_id": "054b14031f9e5f8d",
    "lat": 54.70312509999999,
    "lon": 25.2577053,
    "display_name": "Ukmergės g. 130, 08100 Vilnius, Lietuva",
    "query": "Jozita, Ukmergės g. 130, Vilnius, Lietuva",
    "geocode_updated_at": "2026-04-10T18:07:10.557Z",
    "status": "resolved"
  },
  {
    "station_id": "0597dd23f777d845",
    "lat": 55.712477,
    "lon": 21.3824442,
    "display_name": "Klaipėdos g., 96157 Gargždai, Lietuva",
    "query": "Trevena, Klaipėdos g. 39, Gargždai, Lietuva",
    "geocode_updated_at": "2026-04-10T18:07:10.938Z",
    "status": "resolved"
  },
  {
    "station_id": "05ca6ef50a726774",
    "lat": 54.2394586,
    "lon": 23.8231816,
    "display_name": "Algirdo gatvė 35A, 67227 Seirijai, Lietuva",
    "query": "Melkasta, Algirdo g. 35A, Seirijų mstl., Lietuva",
    "geocode_updated_at": "2026-04-10T18:07:11.319Z",
    "status": "resolved"
  },
  {
    "station_id": "05cabe10c33a59aa",
    "lat": 55.4946231,
    "lon": 25.6457182,
    "display_name": "Pramonės g. 16, 28119 Utena, Lietuva",
    "query": "Utentra, Pramonės g. 16, Utena, Lietuva",
    "geocode_updated_at": "2026-04-10T18:07:11.703Z",
    "status": "resolved"
  },
  {
    "station_id": "0650454cfb481710",
    "lat": 55.0334423,
    "lon": 24.9747671,
    "display_name": "Paširvinčio g. 1-k, 19129 Kabalda, Lietuva",
    "query": "Alauša, Paširvio g. 1, Paširvinčio k., Lietuva",
    "geocode_updated_at": "2026-04-10T18:07:12.099Z",
    "status": "resolved"
  },
  {
    "station_id": "067fa9a55d1ab5c4",
    "lat": 54.9139667,
    "lon": 23.9067962,
    "display_name": "48400, Varnių g. 50, Kaunas, 48401 Kauno m. sav., Lietuva",
    "query": "Orlen, Varnių g. 50, Kaunas, Lietuva",
    "geocode_updated_at": "2026-04-10T18:07:12.479Z",
    "status": "resolved"
  },
  {
    "station_id": "0686eac11292010b",
    "lat": 55.521168,
    "lon": 22.3660295,
    "display_name": "Katyčių k., 75493 Šilalės r., Lietuva",
    "query": "Neste Lietuva, Katyčių k., Šilalės r., Lietuva",
    "geocode_updated_at": "2026-04-10T18:07:12.859Z",
    "status": "resolved"
  },
  {
    "station_id": "06e14a66821ca931",
    "lat": 54.6068557,
    "lon": 23.4002143,
    "display_name": "Plytinės g. 2, 68103 Puskelniai, Lietuva",
    "query": "Alauša, Plytinės g. 2, Puskelnių k., Lietuva",
    "geocode_updated_at": "2026-04-10T18:07:13.241Z",
    "status": "resolved"
  },
  {
    "station_id": "0783f7e225b3f740",
    "lat": 55.169438,
    "lon": 23.881275,
    "display_name": "Lietuva",
    "query": "Circle K, Pikelių k. 1, Lietuva",
    "geocode_updated_at": "2026-04-10T18:07:13.600Z",
    "status": "resolved"
  },
  {
    "station_id": "0808d78d9c50da19",
    "lat": 55.89887909999999,
    "lon": 23.2715912,
    "display_name": "Sembos g., 78347 Šiauliai, Lietuva",
    "query": "Emsi, Sembos g.5, Šiauliai, Lietuva",
    "geocode_updated_at": "2026-04-10T18:07:14.017Z",
    "status": "resolved"
  },
  {
    "station_id": "081dd7fe02093305",
    "lat": 54.43522669999999,
    "lon": 24.0150607,
    "display_name": "Verslo g. 2-k, Alytus, 62175 Alytaus m. sav., Lietuva",
    "query": "Skulas, Verslo g. 2, Virbališkių k., Lietuva",
    "geocode_updated_at": "2026-04-10T18:07:14.448Z",
    "status": "resolved"
  },
  {
    "station_id": "083ac5fc9c5699a5",
    "lat": 55.897804,
    "lon": 23.3520359,
    "display_name": "Bačiūnų g. 12A, 77109 Šiauliai, Lietuva",
    "query": "Junasa, Bačiūnų g. 12a, Lietuva",
    "geocode_updated_at": "2026-04-10T18:07:14.821Z",
    "status": "resolved"
  },
  {
    "station_id": "08a5f4c9b554ea40",
    "lat": 55.258658,
    "lon": 23.4940544,
    "display_name": "Žemaičių g. 34, 60255 Ariogala, Lietuva",
    "query": "Emsi, Žemaičių g. 34, Ariogala, Lietuva",
    "geocode_updated_at": "2026-04-10T18:07:15.202Z",
    "status": "resolved"
  },
  {
    "station_id": "08b03124ccc6ac27",
    "lat": 55.9565283,
    "lon": 22.3011931,
    "display_name": "Telšių gatvė 2 b, Rainiai, 88401 Telšių r. sav., Lietuva",
    "query": "Eniris, Telšių g. 2 b, Rainių k., Lietuva",
    "geocode_updated_at": "2026-04-10T18:07:15.764Z",
    "status": "resolved"
  },
  {
    "station_id": "097be907d39dd561",
    "lat": 55.82751349999999,
    "lon": 21.1850567,
    "display_name": "Klaipėdos gatvė 1a, 96330 Kretingalė, Lietuva",
    "query": "Viada, Klaipėdos g. 1A, Kretingalė, Lietuva",
    "geocode_updated_at": "2026-04-10T18:07:16.151Z",
    "status": "resolved"
  },
  {
    "station_id": "099c76b0372e1f40",
    "lat": 55.7395662,
    "lon": 25.8524845,
    "display_name": "V. Striogos g. 4A, Padustėlis, 32312 Zarasų r. sav., Lietuva",
    "query": "Baltic Petroleum, V. Striogos g. 4A, Padustėlis, Lietuva",
    "geocode_updated_at": "2026-04-10T18:07:16.743Z",
    "status": "resolved"
  },
  {
    "station_id": "09fc501e973d3c69",
    "lat": 54.5840427,
    "lon": 23.3603293,
    "display_name": "Gėlyno g. 25, Marijampolė, 68229 Marijampolės sav., Lietuva",
    "query": "Topgas, Gėlyno g.25, Marijampolė, Lietuva",
    "geocode_updated_at": "2026-04-13T09:44:03.153Z",
    "status": "resolved"
  },
  {
    "station_id": "0a8876d5dff0c71d",
    "lat": 54.8809236,
    "lon": 24.0098105,
    "display_name": "T. Masiulio g. 22B, 52447 Kaunas, Lietuva",
    "query": "Viada, T. Masiulio g. 22B, Kaunas, Lietuva",
    "geocode_updated_at": "2026-04-10T18:07:17.120Z",
    "status": "resolved"
  },
  {
    "station_id": "0a950dba4f7b352a",
    "lat": 55.0991583,
    "lon": 24.3159346,
    "display_name": "Plento g. 24, Gudžioniai, 55462 Jonavos r. sav., Lietuva",
    "query": "Baltic Petroleum, Plento g. 24, Gudžionių k., Lietuva",
    "geocode_updated_at": "2026-04-14T11:34:26.267Z",
    "status": "resolved"
  },
  {
    "station_id": "0ab609a1bc0f8ba9",
    "lat": 54.8930908,
    "lon": 23.9957727,
    "display_name": "R. Kalantos g. 68, 35189 Kaunas, Lietuva",
    "query": "Circle K, R. Kalantos g. 68, Kaunas, Lietuva",
    "geocode_updated_at": "2026-04-10T18:07:17.494Z",
    "status": "resolved"
  },
  {
    "station_id": "0b2654ea6819a833",
    "lat": 54.4113596,
    "lon": 24.0677738,
    "display_name": "Miškininkų g. 7, 62121 Alytus, Lietuva",
    "query": "Saurida, Alytus Miškininkų g. 7, Lietuva",
    "geocode_updated_at": "2026-04-10T18:07:17.903Z",
    "status": "resolved"
  },
  {
    "station_id": "0b77d54d6a5ec1aa",
    "lat": 54.5654291,
    "lon": 23.3577446,
    "display_name": "Kauno g. 68, Marijampolė, 68245 Marijampolės sav., Lietuva",
    "query": "GM Circle K, Kauno g. 68, Girėnų k., Lietuva",
    "geocode_updated_at": "2026-04-10T18:07:18.290Z",
    "status": "resolved"
  },
  {
    "station_id": "0bfe73c68ca31b29",
    "lat": 55.0768044,
    "lon": 22.7520303,
    "display_name": "Muitinės g. 34A, 74106 Jurbarkas, Lietuva",
    "query": "GM Circle K, Muitinės g. 34A, Jurbarkas, Lietuva",
    "geocode_updated_at": "2026-04-10T18:07:18.687Z",
    "status": "resolved"
  },
  {
    "station_id": "0c0f472f68977887",
    "lat": 54.8990214,
    "lon": 23.960112,
    "display_name": "K. Baršausko g. 57, 51423 Kaunas, Lietuva",
    "query": "Circle K, K. Baršausko g. 57, Kaunas, Lietuva",
    "geocode_updated_at": "2026-04-10T18:07:19.070Z",
    "status": "resolved"
  },
  {
    "station_id": "0c5a3905f84c685a",
    "lat": 55.2669923,
    "lon": 22.3098326,
    "display_name": "Dariaus ir Girėno g. 83A, 72192 Tauragė, Lietuva",
    "query": "Circle K, Dariaus ir Girėno g. 83A, Tauragė, Lietuva",
    "geocode_updated_at": "2026-04-10T18:07:19.496Z",
    "status": "resolved"
  },
  {
    "station_id": "0cabb74d326b2883",
    "lat": 56.05598639999999,
    "lon": 24.4072762,
    "display_name": "Vilniaus g. 50, 39177 Pasvalys, Lietuva",
    "query": "Viada, Vilniaus g. 50, Pasvalys, Lietuva",
    "geocode_updated_at": "2026-04-10T18:07:19.889Z",
    "status": "resolved"
  },
  {
    "station_id": "0ce4e3cc1cb04e25",
    "lat": 54.91451,
    "lon": 23.900269,
    "display_name": "Varnių g. 46, 35189 Kaunas, Lietuva",
    "query": "Circle K, Varnių g. 46, Kaunas, Lietuva",
    "geocode_updated_at": "2026-04-10T18:07:20.271Z",
    "status": "resolved"
  },
  {
    "station_id": "0d2d38105b17cdd8",
    "lat": 55.6844017,
    "lon": 21.1495982,
    "display_name": "Minijos g. 119, 93231 Klaipėda, Lietuva",
    "query": "Neste Lietuva, Minijos g. 119, Klaipėda, Lietuva",
    "geocode_updated_at": "2026-04-10T18:07:20.647Z",
    "status": "resolved"
  },
  {
    "station_id": "0d818bbb23f60afd",
    "lat": 54.8664899,
    "lon": 23.8893329,
    "display_name": "Veiverių g. 117, 46354 Kaunas, Lietuva",
    "query": "Viada, Veiverių g. 117, Kaunas, Lietuva",
    "geocode_updated_at": "2026-04-10T18:07:21.018Z",
    "status": "resolved"
  },
  {
    "station_id": "0dce4359092fd834",
    "lat": 54.6690833,
    "lon": 25.2784966,
    "display_name": "Šv. Stepono g. 44, 01312 Vilnius, Lietuva",
    "query": "Alauša, Šv. Stepono g. 44, Vilnius, Lietuva",
    "geocode_updated_at": "2026-04-10T18:07:21.391Z",
    "status": "resolved"
  },
  {
    "station_id": "0de8e228f932460f",
    "lat": 55.6939155,
    "lon": 21.1403151,
    "display_name": "Minijos g. 44, 91197 Klaipėda, Lietuva",
    "query": "Orlen, Minijos g. 44, Klaipėda, Lietuva",
    "geocode_updated_at": "2026-04-10T18:07:21.763Z",
    "status": "resolved"
  },
  {
    "station_id": "0e03498cf93772cd",
    "lat": 54.6766887,
    "lon": 23.4176836,
    "display_name": "Sodo g. 11, 69370 Gavaltuva, Lietuva",
    "query": "Regusa, Sodo g. 11, Gavaltuvos k., Lietuva",
    "geocode_updated_at": "2026-04-10T18:07:22.140Z",
    "status": "resolved"
  },
  {
    "station_id": "0ed1fd1bd6469665",
    "lat": 54.40895560000001,
    "lon": 24.0051886,
    "display_name": "Ūdrijos g. 31, 62411 Alytus, Lietuva",
    "query": "Neste Lietuva, Ūdrijos g. 31, Alytus, Lietuva",
    "geocode_updated_at": "2026-04-10T18:07:22.548Z",
    "status": "resolved"
  },
  {
    "station_id": "0ef08b459a1def5f",
    "lat": 54.8500609,
    "lon": 23.9658745,
    "display_name": "Marijampolės pl. 20, 46147 Kaunas, Lietuva",
    "query": "Regusa, Marijampolės pl. 20, Kaunas, Lietuva",
    "geocode_updated_at": "2026-04-10T18:07:22.920Z",
    "status": "resolved"
  },
  {
    "station_id": "0f856909c94061ef",
    "lat": 55.4841866,
    "lon": 22.5879939,
    "display_name": "Dvaro gatvė 3, košių ii k, 75226 Šilalės r. sav., Lietuva",
    "query": "Circle K, Dvaro g. 3, Košių II k., Lietuva",
    "geocode_updated_at": "2026-04-10T18:07:23.341Z",
    "status": "resolved"
  },
  {
    "station_id": "0f963735c9b4e05b",
    "lat": 54.7236325,
    "lon": 25.1912413,
    "display_name": "Buivydiškių g. 1a, 14160 Buivydiškės, Lietuva",
    "query": "Saurida, Zujūnai Buivydiškių g. 1A, Lietuva",
    "geocode_updated_at": "2026-04-10T18:07:23.719Z",
    "status": "resolved"
  },
  {
    "station_id": "0fd40f8722deb491",
    "lat": 55.9440799,
    "lon": 23.3311358,
    "display_name": "Tilžės g. 274, 76201 Šiauliai, Lietuva",
    "query": "Viada, Tilžės g. 274, Šiauliai, Lietuva",
    "geocode_updated_at": "2026-04-10T18:07:24.110Z",
    "status": "resolved"
  },
  {
    "station_id": "10ee607690b1c0ab",
    "lat": 55.74823629999999,
    "lon": 24.3907302,
    "display_name": "Senamiesčio g. 115, 35114 Panevėžys, Lietuva",
    "query": "Orlen, Senamiesčio g. 115, Panevėžys, Lietuva",
    "geocode_updated_at": "2026-04-10T18:07:24.529Z",
    "status": "resolved"
  },
  {
    "station_id": "126769cf085068db",
    "lat": 55.0973716,
    "lon": 23.806765,
    "display_name": "Vandžiogalos g., 54327 Babtai, Lietuva",
    "query": "Saurida, Babtai Vandžiogalos g. 3, Lietuva",
    "geocode_updated_at": "2026-04-10T18:07:24.892Z",
    "status": "resolved"
  },
  {
    "station_id": "137e3fe4e1adc316",
    "lat": 54.9255246,
    "lon": 23.8918165,
    "display_name": "Žemaičių pl. 26, 48256 Kaunas, Lietuva",
    "query": "Neste Lietuva, Žemaičių pl. 26, Kaunas, Lietuva",
    "geocode_updated_at": "2026-04-10T18:07:25.301Z",
    "status": "resolved"
  },
  {
    "station_id": "13c35f7a0eb6462b",
    "lat": 54.7222739,
    "lon": 25.3172765,
    "display_name": "Antakalnio g. 128, 10200 Vilnius, Lietuva",
    "query": "Baltic Petroleum, Antakalnio g. 128, Vilnius, Lietuva",
    "geocode_updated_at": "2026-04-10T18:07:25.679Z",
    "status": "resolved"
  },
  {
    "station_id": "143c2457c46785b6",
    "lat": 55.977007,
    "lon": 22.265474,
    "display_name": "Luokės g. 70, 87128 Telšiai, Lietuva",
    "query": "Circle K, Luokės g. 70, Telšiai, Lietuva",
    "geocode_updated_at": "2026-04-10T18:07:26.081Z",
    "status": "resolved"
  },
  {
    "station_id": "144fc86faf69810c",
    "lat": 54.2287927,
    "lon": 23.5284025,
    "display_name": "Turistų g. 32, 67102 Lazdijai, Lietuva",
    "query": "Viada, Turistų g. 32, Lazdijai, Lietuva",
    "geocode_updated_at": "2026-04-10T18:07:26.455Z",
    "status": "resolved"
  },
  {
    "station_id": "14be12c863f80595",
    "lat": 55.7964703,
    "lon": 24.8888357,
    "display_name": "Parko g. 3A, 40395 Noriūnai, Lietuva",
    "query": "Baltic Petroleum, Parko g. 3A, Noriūnų k., Lietuva",
    "geocode_updated_at": "2026-04-10T18:07:26.838Z",
    "status": "resolved"
  },
  {
    "station_id": "15542ee221fdaf08",
    "lat": 54.7087946,
    "lon": 25.1897922,
    "display_name": "Pilaitės pr. 27, Vilnius, 06269 Vilniaus m. sav., Lietuva",
    "query": "Neste Lietuva, Pilaitės pr. 27, Vilnius, Lietuva",
    "geocode_updated_at": "2026-04-10T18:07:27.242Z",
    "status": "resolved"
  },
  {
    "station_id": "15790dbeada3cb08",
    "lat": 54.9271374,
    "lon": 23.9746292,
    "display_name": "Pramonės pr. 44, 50302 Kaunas, Lietuva",
    "query": "Viada, Pramonės pr. 44, Kaunas, Lietuva",
    "geocode_updated_at": "2026-04-10T18:07:27.624Z",
    "status": "resolved"
  },
  {
    "station_id": "15c3a7ba3901e878",
    "lat": 54.4244517,
    "lon": 23.232028,
    "display_name": "Dariaus ir Girėno g. 81, 69219 Kalvarija, Lietuva",
    "query": "Viada, Dariaus ir Girėno g. 81, Kalvarija, Lietuva",
    "geocode_updated_at": "2026-04-10T18:07:28.014Z",
    "status": "resolved"
  },
  {
    "station_id": "15fab909f0122ce6",
    "lat": 55.169438,
    "lon": 23.881275,
    "display_name": "Lietuva",
    "query": "Baltic Petroleum, Pievų g. 2, Klišių k., Lietuva",
    "geocode_updated_at": "2026-04-10T18:07:28.377Z",
    "status": "resolved"
  },
  {
    "station_id": "16420cdeeb4e0c1b",
    "lat": 54.657932,
    "lon": 23.0331943,
    "display_name": "S. Nėries g. 38, 70165 Vilkaviškis, Lietuva",
    "query": "Emsi, S.Nėries g.38, Vilkaviškis, Lietuva",
    "geocode_updated_at": "2026-04-10T18:07:28.787Z",
    "status": "resolved"
  },
  {
    "station_id": "16646fa19724a9ae",
    "lat": 55.169438,
    "lon": 23.881275,
    "display_name": "Lietuva",
    "query": "Eniris, Ruoščių k. 1, Lietuva",
    "geocode_updated_at": "2026-04-10T18:07:29.130Z",
    "status": "resolved"
  },
  {
    "station_id": "1669c6b0d4ded1a4",
    "lat": 55.6307566,
    "lon": 22.9330112,
    "display_name": "Kelmė, Kelmės r. sav., Lietuva",
    "query": "Eniris, Puttvinskio g. 29, Kelmė, Lietuva",
    "geocode_updated_at": "2026-04-10T18:07:29.520Z",
    "status": "resolved"
  },
  {
    "station_id": "16d1cf79797f445b",
    "lat": 54.8551801,
    "lon": 24.0131981,
    "display_name": "Didžioji g. 84, 45473 Kaunas, Lietuva",
    "query": "Viada, Didžioji g. 84, Kaunas, Lietuva",
    "geocode_updated_at": "2026-04-10T18:07:29.901Z",
    "status": "resolved"
  },
  {
    "station_id": "171c195894b6772e",
    "lat": 54.7234577,
    "lon": 25.2331756,
    "display_name": "Laisvės pr. 80, 06125 Vilnius, Lietuva",
    "query": "Emsi, Laisvės pr. 80B, Vilnius, Lietuva",
    "geocode_updated_at": "2026-04-10T18:07:30.278Z",
    "status": "resolved"
  },
  {
    "station_id": "174e64f69df59444",
    "lat": 55.8243416,
    "lon": 25.0013444,
    "display_name": "Kikonių g. 10, Aleksandrija, 40335 Kupiškio r. sav., Lietuva",
    "query": "Narjanta, Kikonių g. 10, Aleksandrijos k., Lietuva",
    "geocode_updated_at": "2026-04-10T18:07:30.656Z",
    "status": "resolved"
  },
  {
    "station_id": "17760e58440e1711",
    "lat": 54.92532989999999,
    "lon": 23.8907331,
    "display_name": "Žemaičių pl. 19, 48255 Kaunas, Lietuva",
    "query": "Circle K, Žemaičių pl. 19, Kaunas, Lietuva",
    "geocode_updated_at": "2026-04-10T18:07:31.038Z",
    "status": "resolved"
  },
  {
    "station_id": "179c6366afb6814e",
    "lat": 54.7369444,
    "lon": 25.2319444,
    "display_name": "Ukmergės g. 319, 06305 Vilnius, Lietuva",
    "query": "Orlen, Ukmergės g. 319, Vilnius, Lietuva",
    "geocode_updated_at": "2026-04-10T18:07:31.412Z",
    "status": "resolved"
  },
  {
    "station_id": "1802bfffac2720cf",
    "lat": 55.26530529999999,
    "lon": 22.3088319,
    "display_name": "Dariaus ir Girėno g. 130A, 72194 Tauragė, Lietuva",
    "query": "Neste Lietuva, Dariaus ir Girėno g. 130A, Tauragė, Lietuva",
    "geocode_updated_at": "2026-04-10T18:07:31.800Z",
    "status": "resolved"
  },
  {
    "station_id": "18a5c3b2320bfd88",
    "lat": 54.65183649999999,
    "lon": 25.1854119,
    "display_name": "Jankiškių g. 43A, Vilnius, 02300 Vilniaus m. sav., Lietuva",
    "query": "Saurida, Jankiškių g. 43a, Vilnius, Lietuva",
    "geocode_updated_at": "2026-04-10T18:07:32.196Z",
    "status": "resolved"
  },
  {
    "station_id": "18aefa494dd975ec",
    "lat": 55.7063704,
    "lon": 21.363419,
    "display_name": "Gamyklos g. 1, 96155 Gargždai, Lietuva",
    "query": "Jozita, Gamyklos g. 1, Gargždai, Lietuva",
    "geocode_updated_at": "2026-04-10T18:07:32.565Z",
    "status": "resolved"
  },
  {
    "station_id": "18af7c44bf326d27",
    "lat": 55.8258425,
    "lon": 24.9794922,
    "display_name": "Panevėžio g. 9, 40134 Kupiškis, Lietuva",
    "query": "Stateta, Panevėžio g. 9, Kupiškis, Lietuva",
    "geocode_updated_at": "2026-04-10T18:07:33.146Z",
    "status": "resolved"
  },
  {
    "station_id": "18e2ab17093d330f",
    "lat": 54.764016,
    "lon": 25.1966856,
    "display_name": "Ožiarūčių g 1A, 14185 Bukiškis, Lietuva",
    "query": "Viada, Ožiarūčių g. 1a, Avižienių k., Lietuva",
    "geocode_updated_at": "2026-04-10T18:07:33.519Z",
    "status": "resolved"
  },
  {
    "station_id": "1913a0dd77abd436",
    "lat": 54.7224395,
    "lon": 25.2710137,
    "display_name": "J. Kazlausko g. 33, 08314 Vilnius, Lietuva",
    "query": "Skulas, J.Kazlausko g. 34, Vilnius, Lietuva",
    "geocode_updated_at": "2026-04-10T18:07:33.890Z",
    "status": "resolved"
  },
  {
    "station_id": "19c1ed1a140ae5f9",
    "lat": 55.1650783,
    "lon": 24.5153114,
    "display_name": "Pageležių k, 20278 Pageležiai, Lietuva",
    "query": "Saurida, Pageležių km., Lietuva",
    "geocode_updated_at": "2026-04-10T18:07:34.263Z",
    "status": "resolved"
  },
  {
    "station_id": "1a20f0b20a41b6f0",
    "lat": 55.2865443,
    "lon": 23.9724734,
    "display_name": "J. Basanavičiaus g. 40a, 57290 Kėdainiai, Lietuva",
    "query": "Circle K, J. Basanavičiaus g. 40a, Kėdainiai, Lietuva",
    "geocode_updated_at": "2026-04-10T18:07:34.655Z",
    "status": "resolved"
  },
  {
    "station_id": "1a5358a4f9caaa03",
    "lat": 54.7892076,
    "lon": 24.6760866,
    "display_name": "Sabališkių g. 1f, 26141 Elektrėnai, Lietuva",
    "query": "Circle K, Sabališkių g. 1F, Elektrėnai, Lietuva",
    "geocode_updated_at": "2026-04-10T18:07:35.024Z",
    "status": "resolved"
  },
  {
    "station_id": "1b583172780083eb",
    "lat": 54.93379789999999,
    "lon": 23.8677439,
    "display_name": "Vakarinis aplinkl. 18, 48182 Kaunas, Lietuva",
    "query": "Neste Lietuva, Vakarinis aplinkkelis 18, Kaunas, Lietuva",
    "geocode_updated_at": "2026-04-10T18:07:35.398Z",
    "status": "resolved"
  },
  {
    "station_id": "1b6119a805a6a701",
    "lat": 54.7398381,
    "lon": 25.2761118,
    "display_name": "Jeruzalės g. 2, 08414 Vilnius, Lietuva",
    "query": "Emsi, Jeruzalės 2, Vilnius, Lietuva",
    "geocode_updated_at": "2026-04-10T18:07:35.769Z",
    "status": "resolved"
  },
  {
    "station_id": "1b909d5a7c082307",
    "lat": 55.169438,
    "lon": 23.881275,
    "display_name": "Lietuva",
    "query": "Jozita, Kuosiškių k. 4, Lietuva",
    "geocode_updated_at": "2026-04-10T18:07:36.116Z",
    "status": "resolved"
  },
  {
    "station_id": "1bb18ca4e76a4530",
    "lat": 54.1634114,
    "lon": 24.1876479,
    "display_name": "Vilniaus g. 6, 65338 Merkinė, Lietuva",
    "query": "Baltic Petroleum, Vilniaus g. 6A, Senoji Varėna, Lietuva",
    "geocode_updated_at": "2026-04-10T18:07:36.526Z",
    "status": "resolved"
  },
  {
    "station_id": "1bbf8b9bc6326c0d",
    "lat": 54.9333665,
    "lon": 23.9434658,
    "display_name": "Ašigalio g. 1, 49160 Kaunas, Lietuva",
    "query": "Skulas, Ašigalio g. 1 A, Kaunas, Lietuva",
    "geocode_updated_at": "2026-04-10T18:07:36.898Z",
    "status": "resolved"
  },
  {
    "station_id": "1cbdef748050c74d",
    "lat": 54.6691455,
    "lon": 25.1047435,
    "display_name": "Kovo 11-osios g. 75, 27119 Grigiškės, Lietuva",
    "query": "Viada, Vilnius, Grigiškės, Kovo 11-osios g. 75, Lietuva",
    "geocode_updated_at": "2026-04-10T18:07:37.268Z",
    "status": "resolved"
  },
  {
    "station_id": "1dfe4c0d7ddb8682",
    "lat": 54.56519059999999,
    "lon": 23.3686234,
    "display_name": "Stoties g. 6B, 68110 Marijampolė, Lietuva",
    "query": "Emsi, Stoties g. 6B, Marijampolė, Lietuva",
    "geocode_updated_at": "2026-04-10T18:07:37.629Z",
    "status": "resolved"
  },
  {
    "station_id": "1e2f696e55c5e7d2",
    "lat": 54.9498675,
    "lon": 23.8738335,
    "display_name": "Vakarų g. 14, 47425 Kaunas, Lietuva",
    "query": "Neste Lietuva, Vakarų g. 14, Kumpių k., Lietuva",
    "geocode_updated_at": "2026-04-10T18:07:38.011Z",
    "status": "resolved"
  },
  {
    "station_id": "1e59c41b086d9658",
    "lat": 54.9174612,
    "lon": 24.0350871,
    "display_name": "Taikos pr. 120, 52140 Kaunas, Lietuva",
    "query": "Baltic Petroleum, Taikos pr. 120, Kaunas, Lietuva",
    "geocode_updated_at": "2026-04-10T18:07:38.396Z",
    "status": "resolved"
  },
  {
    "station_id": "1e8b23a8afbda341",
    "lat": 54.2057273,
    "lon": 25.6152643,
    "display_name": "Skraičionių g. 1, 17140 Skraičionys, Lietuva",
    "query": "Alauša, Skraičionių g. 1, Skraičionių k., Lietuva",
    "geocode_updated_at": "2026-04-10T18:07:38.779Z",
    "status": "resolved"
  },
  {
    "station_id": "1eb29eb972e3911d",
    "lat": 54.4076183,
    "lon": 24.0851659,
    "display_name": "Unnamed Road, 64464 Alytus, Lietuva",
    "query": "Stateta, Alytaus k., Lietuva",
    "geocode_updated_at": "2026-04-10T18:07:39.172Z",
    "status": "resolved"
  },
  {
    "station_id": "1f506ae3c6af54ee",
    "lat": 55.748543,
    "lon": 24.393371,
    "display_name": "Senamiesčio g. 116A, 35115 Panevėžys, Lietuva",
    "query": "Viada, Senamiesčio g. 116A, Panevėžys, Lietuva",
    "geocode_updated_at": "2026-04-10T18:07:39.553Z",
    "status": "resolved"
  },
  {
    "station_id": "1ff0854cdda43fdb",
    "lat": 54.8550002,
    "lon": 23.952605,
    "display_name": "Plento g. 46, 45400 Kaunas, Lietuva",
    "query": "Baltic Petroleum, Plento g. 46, Spanėnų k., Lietuva",
    "geocode_updated_at": "2026-04-10T18:07:39.986Z",
    "status": "resolved"
  },
  {
    "station_id": "1ff14d2215707834",
    "lat": 55.9226973,
    "lon": 23.3578362,
    "display_name": "Užmiesčio g. 2, 76273 Šiauliai, Lietuva",
    "query": "Viada, Užmiesčio g. 2, Šiauliai, Lietuva",
    "geocode_updated_at": "2026-04-10T18:07:40.355Z",
    "status": "resolved"
  },
  {
    "station_id": "202eabe54f1fbf17",
    "lat": 55.7862294,
    "lon": 22.6710268,
    "display_name": "Žemaitės g. 52, Užventis, 86343 Kelmės r. sav., Lietuva",
    "query": "Eniris, Žemaitės g. 52, Užventis, Lietuva",
    "geocode_updated_at": "2026-04-10T18:07:40.731Z",
    "status": "resolved"
  },
  {
    "station_id": "20bc4a03cfc39092",
    "lat": 54.91315299999999,
    "lon": 23.926329,
    "display_name": "Tvirtovės al. 33a, 50157 Kaunas, Lietuva",
    "query": "Circle K, Tvirtovės alėja 33a, Kaunas, Lietuva",
    "geocode_updated_at": "2026-04-10T18:07:41.101Z",
    "status": "resolved"
  },
  {
    "station_id": "20f9b1edeb7323f5",
    "lat": 56.194814,
    "lon": 24.7720451,
    "display_name": "Kilučių g. 93, 41156 Biržai, Lietuva",
    "query": "Circle K, Kilučių g. 93, Biržai, Lietuva",
    "geocode_updated_at": "2026-04-10T18:07:41.484Z",
    "status": "resolved"
  },
  {
    "station_id": "219273de13cbd99c",
    "lat": 55.9167296,
    "lon": 23.2469009,
    "display_name": "Nuklono g. 4, Šiauliai, 78349 Šiaulių m. sav., Lietuva",
    "query": "Apsaga, Nuklono g. 4, Šiauliai, Lietuva",
    "geocode_updated_at": "2026-04-10T18:07:41.858Z",
    "status": "resolved"
  },
  {
    "station_id": "21e4ecf47119b167",
    "lat": 55.7532446,
    "lon": 24.3122334,
    "display_name": "Pušaloto g. 191A, 35291 Panevėžys, Lietuva",
    "query": "Viada, Pušaloto g. 193A, Panevėžys, Lietuva",
    "geocode_updated_at": "2026-04-10T18:07:42.225Z",
    "status": "resolved"
  },
  {
    "station_id": "2321e6f479660016",
    "lat": 54.6285926,
    "lon": 23.9585095,
    "display_name": "Vilniaus g. 3A, 59115 Prienai, Lietuva",
    "query": "Baltic Petroleum, Vilniaus g. 3A, Prienai, Lietuva",
    "geocode_updated_at": "2026-04-10T18:07:42.620Z",
    "status": "resolved"
  },
  {
    "station_id": "237c12c592caeeb6",
    "lat": 54.7012617,
    "lon": 25.2038673,
    "display_name": "Pilaitės pr. 28, 06264 Vilnius, Lietuva",
    "query": "Viada, Pilaitės pr. 28, Vilnius, Lietuva",
    "geocode_updated_at": "2026-04-10T18:07:42.990Z",
    "status": "resolved"
  },
  {
    "station_id": "2394e2875422f0cb",
    "lat": 54.9456156,
    "lon": 23.0459076,
    "display_name": "Sodų g. 1, Šakiai, 71136 Šakių r. sav., Lietuva",
    "query": "Baltic Petroleum, Sodų g. 1, Šakiai, Lietuva",
    "geocode_updated_at": "2026-04-10T18:07:43.378Z",
    "status": "resolved"
  },
  {
    "station_id": "23cf4e45156e4543",
    "lat": 56.23851430000001,
    "lon": 22.7508244,
    "display_name": "Plento g. 1, 85380 Akmenė I, Lietuva",
    "query": "Saurida, Akmenės I kaimas Plento g. 1, Lietuva",
    "geocode_updated_at": "2026-04-10T18:07:43.780Z",
    "status": "resolved"
  },
  {
    "station_id": "2426ed4032892ba1",
    "lat": 54.3867365,
    "lon": 24.0329151,
    "display_name": "Santaikos g. 33, 62100 Alytus, Lietuva",
    "query": "Baltic Petroleum, Santaikos g. 33, Alytus, Lietuva",
    "geocode_updated_at": "2026-04-10T18:07:44.167Z",
    "status": "resolved"
  },
  {
    "station_id": "2499661767e45a30",
    "lat": 54.4362248,
    "lon": 23.2049896,
    "display_name": "Suvalkijos g. 15, Kušliškiai, 69200 Kalvarijos sav., Lietuva",
    "query": "Saurida, Kušliškių km. Suvalkijos g. 15, Lietuva",
    "geocode_updated_at": "2026-04-10T18:07:44.542Z",
    "status": "resolved"
  },
  {
    "station_id": "24be6bab3940b105",
    "lat": 55.4643408,
    "lon": 21.4702737,
    "display_name": "Tilžės g. 21, 99402 Saugos, Lietuva",
    "query": "Trevena, Tilžės g. 21, Saugų k., Lietuva",
    "geocode_updated_at": "2026-04-10T18:07:44.922Z",
    "status": "resolved"
  },
  {
    "station_id": "25029d50e2f38c40",
    "lat": 55.4956966,
    "lon": 25.5831574,
    "display_name": "J. Basanavičiaus g. 3, 28134 Utena, Lietuva",
    "query": "Circle K, J. Basanavičiaus g. 3, Utena, Lietuva",
    "geocode_updated_at": "2026-04-10T18:07:45.308Z",
    "status": "resolved"
  },
  {
    "station_id": "255433be82b9ac17",
    "lat": 54.86429080000001,
    "lon": 24.4365127,
    "display_name": "Paukštininkų g. 4, 56110 Kaišiadorys, Lietuva",
    "query": "Emsi, Paukštininkų g.4a, Kaišiadorys, Lietuva",
    "geocode_updated_at": "2026-04-10T18:07:45.673Z",
    "status": "resolved"
  },
  {
    "station_id": "255e19bc24d6f3ba",
    "lat": 54.6566501,
    "lon": 25.2920846,
    "display_name": "Žirnių g. 17, 02120 Vilnius, Lietuva",
    "query": "Neste Lietuva, Žirnių g. 17, Vilnius, Lietuva",
    "geocode_updated_at": "2026-04-10T18:07:46.050Z",
    "status": "resolved"
  },
  {
    "station_id": "256c40b5db5f348b",
    "lat": 56.0147925,
    "lon": 22.9512518,
    "display_name": "159 91, 81189 Kuršėnai, Lietuva",
    "query": "Atsiauta, Vytauto 80, Kuršėnai, Lietuva",
    "geocode_updated_at": "2026-04-10T18:07:46.430Z",
    "status": "resolved"
  },
  {
    "station_id": "261c1bb46d448322",
    "lat": 54.9235972,
    "lon": 24.0008066,
    "display_name": "Garažų g. 20, 50314 Kaunas, Lietuva",
    "query": "Saurida, Kaunas Garažų g. 20, Lietuva",
    "geocode_updated_at": "2026-04-10T18:07:46.806Z",
    "status": "resolved"
  },
  {
    "station_id": "261c5988a8fbcd1e",
    "lat": 54.71199,
    "lon": 25.2930465,
    "display_name": "P. Lukšio g. 22, 08222 Vilnius, Lietuva",
    "query": "Neste Lietuva, P. Lukšio g. 22, Vilnius, Lietuva",
    "geocode_updated_at": "2026-04-10T18:07:47.173Z",
    "status": "resolved"
  },
  {
    "station_id": "264b0ba8ac1926c5",
    "lat": 54.66953059999999,
    "lon": 25.279123,
    "display_name": "Sodų g. 22, 01312 Vilnius, Lietuva",
    "query": "Viada, Sodų g. 22, Vilnius, Lietuva",
    "geocode_updated_at": "2026-04-10T18:07:47.550Z",
    "status": "resolved"
  },
  {
    "station_id": "26535e26b6de3ad5",
    "lat": 54.6447198,
    "lon": 25.4918337,
    "display_name": "Juodalaukis, Vilniaus r. sav., Lietuva",
    "query": "Viada, Juodalaukių k. 2, Lietuva",
    "geocode_updated_at": "2026-04-10T18:07:47.964Z",
    "status": "resolved"
  },
  {
    "station_id": "267edfc09828e6dd",
    "lat": 55.3121411,
    "lon": 24.7864754,
    "display_name": "Ežero g. 7, Kurėnai, 20102 Ukmergės r. sav., Lietuva",
    "query": "Circle K, Ežero g. 7, Kurėnų k., Lietuva",
    "geocode_updated_at": "2026-04-10T18:07:48.365Z",
    "status": "resolved"
  },
  {
    "station_id": "26eb1e1a0e833af0",
    "lat": 54.8879714,
    "lon": 23.7840504,
    "display_name": "Kantališkių g., Ringaudai, Kauno r. sav., Lietuva",
    "query": "Stateta, Kantališkių k., Lietuva",
    "geocode_updated_at": "2026-04-10T18:07:48.720Z",
    "status": "resolved"
  },
  {
    "station_id": "26efe4b50b1af40a",
    "lat": 54.6942928,
    "lon": 25.2632751,
    "display_name": "A. Goštauto g. 13, 01108 Vilnius, Lietuva",
    "query": "Circle K, A. Goštauto g. 13, Vilnius, Lietuva",
    "geocode_updated_at": "2026-04-10T18:07:49.135Z",
    "status": "resolved"
  },
  {
    "station_id": "289576c41a32e756",
    "lat": 55.5904661,
    "lon": 26.4632957,
    "display_name": "Taikos pr. 47, Visaginas, 31217 Visagino sav., Lietuva",
    "query": "Autograndas, Taikos pr. 47, Lietuva",
    "geocode_updated_at": "2026-04-14T11:34:26.671Z",
    "status": "resolved"
  },
  {
    "station_id": "28f128077307cf66",
    "lat": 55.8969226,
    "lon": 21.2443527,
    "display_name": "Vilniaus g. 29B, 97101 Kretinga, Lietuva",
    "query": "Trevena, Vilniaus g. 29B, Kretinga, Lietuva",
    "geocode_updated_at": "2026-04-10T18:07:49.509Z",
    "status": "resolved"
  },
  {
    "station_id": "28f7daaaa8f98935",
    "lat": 56.2675905,
    "lon": 24.3711187,
    "display_name": "Liepų g. 4, Škilinpamūšis, 39421 Pasvalio r. sav., Lietuva",
    "query": "Pakelės namai, Liepų g. 4, Škilinpamūšio k., Lietuva",
    "geocode_updated_at": "2026-04-10T18:07:49.903Z",
    "status": "resolved"
  },
  {
    "station_id": "296701713273c4d9",
    "lat": 54.621318,
    "lon": 25.2429654,
    "display_name": "Eišiškių pl. 82, 02186 Vilnius, Lietuva",
    "query": "Neste Lietuva, Eišiškių pl. 82, Vilnius, Lietuva",
    "geocode_updated_at": "2026-04-10T18:07:50.314Z",
    "status": "resolved"
  },
  {
    "station_id": "2a0f990ab6ccb2df",
    "lat": 55.2407789,
    "lon": 22.3052917,
    "display_name": "Pramonės g. 1, 72338 Tauragė, Lietuva",
    "query": "Viada, Pramonės g. 1, Tauragė, Lietuva",
    "geocode_updated_at": "2026-04-10T18:07:50.693Z",
    "status": "resolved"
  },
  {
    "station_id": "2a266ec1cc53d22e",
    "lat": 55.93894700000001,
    "lon": 21.8801181,
    "display_name": "Pramogų g. 4-k, Truikiai, 90110 Plungės r. sav., Lietuva",
    "query": "VVARFF (Circle K), Pramogų g. 4, Truikių k., Lietuva",
    "geocode_updated_at": "2026-04-10T18:07:51.073Z",
    "status": "resolved"
  },
  {
    "station_id": "2a2c2d354fa47e9d",
    "lat": 54.9038912,
    "lon": 23.8353794,
    "display_name": "Marvelės g. 132, 46206 Kaunas, Lietuva",
    "query": "Boost Petrol, Marvelės g. 132, Kaunas, Lietuva",
    "geocode_updated_at": "2026-04-10T18:07:51.450Z",
    "status": "resolved"
  },
  {
    "station_id": "2a6377c2e7513736",
    "lat": 55.7317201,
    "lon": 24.303218,
    "display_name": "Klaipėdos g. 162D, 35193 Panevėžys, Lietuva",
    "query": "Orlen, Klaipėdos g. 162 D, Panevėžys, Lietuva",
    "geocode_updated_at": "2026-04-10T18:07:51.831Z",
    "status": "resolved"
  },
  {
    "station_id": "2ae1ec8497f8c6b3",
    "lat": 54.6772199,
    "lon": 25.255633,
    "display_name": "Kedrų g. 2, 03159 Vilnius, Lietuva",
    "query": "Neste Lietuva, Kedrų g. 2, Vilnius, Lietuva",
    "geocode_updated_at": "2026-04-10T18:07:52.206Z",
    "status": "resolved"
  },
  {
    "station_id": "2b428581a0bd3968",
    "lat": 54.9264215,
    "lon": 24.0599103,
    "display_name": "Ateities pl. 50B, 52106 Kaunas, Lietuva",
    "query": "Neste Lietuva, Ateities pl. 50B, Kaunas, Lietuva",
    "geocode_updated_at": "2026-04-10T18:07:52.593Z",
    "status": "resolved"
  },
  {
    "station_id": "2b69907393fefb0a",
    "lat": 56.3161359,
    "lon": 22.3411853,
    "display_name": "Laisvės g. 50, 89223 Mažeikiai, Lietuva",
    "query": "Adukesta, Laisvės g. 50, Maciuičių k., Lietuva",
    "geocode_updated_at": "2026-04-10T18:07:52.975Z",
    "status": "resolved"
  },
  {
    "station_id": "2bd6c0cbb2897dcd",
    "lat": 54.92346509999999,
    "lon": 24.0721069,
    "display_name": "Palemono g. 171, 52107 Kaunas, Lietuva",
    "query": "Alauša, Palemono g. 171, Kaunas, Lietuva",
    "geocode_updated_at": "2026-04-10T18:07:53.356Z",
    "status": "resolved"
  },
  {
    "station_id": "2be30516a51254f8",
    "lat": 54.1779429,
    "lon": 23.493625,
    "display_name": "Janaslavas, Lietuva",
    "query": "Emsi, Janaslavo k.11, Lazdijų sen., Lietuva",
    "geocode_updated_at": "2026-04-10T18:07:53.737Z",
    "status": "resolved"
  },
  {
    "station_id": "2c1d5687632b87b1",
    "lat": 54.8494681,
    "lon": 23.9670452,
    "display_name": "Marijampolės pl. 29, 45438 Kaunas, Lietuva",
    "query": "Viada, Marijampolės pl. 29, Kaunas, Lietuva",
    "geocode_updated_at": "2026-04-10T18:07:54.111Z",
    "status": "resolved"
  },
  {
    "station_id": "2c86a958fd17c2a3",
    "lat": 56.2076124,
    "lon": 24.7707516,
    "display_name": "Jaunimo g. 2, 41168 Biržai, Lietuva",
    "query": "Emsi, Jaunimo g.2a, Biržai, Lietuva",
    "geocode_updated_at": "2026-04-10T18:07:54.499Z",
    "status": "resolved"
  },
  {
    "station_id": "2c9fe43c9d1fb7d3",
    "lat": 55.7431766,
    "lon": 24.3421638,
    "display_name": "S. Kerbedžio g. 2, 35135 Panevėžys, Lietuva",
    "query": "Deliuvis, S.Kerbedžio 2, Panevėžys, Lietuva",
    "geocode_updated_at": "2026-04-10T18:07:54.876Z",
    "status": "resolved"
  },
  {
    "station_id": "2d1b12fc37b5ea0f",
    "lat": 55.8146338,
    "lon": 23.5531175,
    "display_name": "Gedimino g. 50c, 82168 Radviliškis, Lietuva",
    "query": "Saurida, Velžių km .Radviliškio plentas 2, Lietuva",
    "geocode_updated_at": "2026-04-10T18:07:55.249Z",
    "status": "resolved"
  },
  {
    "station_id": "2dcd87a670b7c94c",
    "lat": 54.818884,
    "lon": 23.8581528,
    "display_name": "Baltijos g. 1, Garliava, 53289 Kauno r. sav., Lietuva",
    "query": "Circle K, Baltijos g. 1, Mastaičių k., Lietuva",
    "geocode_updated_at": "2026-04-10T18:07:55.618Z",
    "status": "resolved"
  },
  {
    "station_id": "2ddb5ac9e80d0030",
    "lat": 55.7193075,
    "lon": 21.1400044,
    "display_name": "Priestočio g. 26, Klaipėda, 92228 Klaipėdos m. sav., Lietuva",
    "query": "Jozita, Priestočio g. 26, Klaipėda, Lietuva",
    "geocode_updated_at": "2026-04-10T18:07:55.982Z",
    "status": "resolved"
  },
  {
    "station_id": "2e49278504f8666a",
    "lat": 54.93842,
    "lon": 23.898327,
    "display_name": "Islandijos pl. 32, 47446 Kaunas, Lietuva",
    "query": "Circle K, Islandijos pl. 32, Kaunas, Lietuva",
    "geocode_updated_at": "2026-04-10T18:07:56.369Z",
    "status": "resolved"
  },
  {
    "station_id": "2f015e6abade2e4b",
    "lat": 55.2362221,
    "lon": 22.2968029,
    "display_name": "Pramonės g. 10a, 72323 Tauragė, Lietuva",
    "query": "Madalva, Pramonės g.10A, Tauragė, Lietuva",
    "geocode_updated_at": "2026-04-10T18:07:56.795Z",
    "status": "resolved"
  },
  {
    "station_id": "2f2c16c0692abbd4",
    "lat": 54.66621180000001,
    "lon": 23.9469714,
    "display_name": "Kauno plentas 40, 59149 Mačiūnai, Lietuva",
    "query": "Viada, Kauno pl. 40, Mačiūnų k., Lietuva",
    "geocode_updated_at": "2026-04-10T18:07:57.201Z",
    "status": "resolved"
  },
  {
    "station_id": "304d11951c8356ad",
    "lat": 54.8554539,
    "lon": 24.4419732,
    "display_name": "Gedimino g. 135, 56173 Kaišiadorys, Lietuva",
    "query": "Viada, Gedimino g. 135, Kaišiadorys, Lietuva",
    "geocode_updated_at": "2026-04-10T18:07:57.584Z",
    "status": "resolved"
  },
  {
    "station_id": "304f8c372d8563cb",
    "lat": 54.6649896,
    "lon": 25.2465984,
    "display_name": "Vilkpėdės g. 2, 03151 Vilnius, Lietuva",
    "query": "Viada, Vilkpėdės g. 2, Vilnius, Lietuva",
    "geocode_updated_at": "2026-04-10T18:07:57.950Z",
    "status": "resolved"
  },
  {
    "station_id": "30a600e09d0d3702",
    "lat": 54.8808333,
    "lon": 23.8941667,
    "display_name": "Veiverių g. 49a, 46336 Kaunas, Lietuva",
    "query": "Circle K, Veiverių g. 49A, Kaunas, Lietuva",
    "geocode_updated_at": "2026-04-10T18:07:58.324Z",
    "status": "resolved"
  },
  {
    "station_id": "311d9d2219dc3612",
    "lat": 55.2769363,
    "lon": 23.9558861,
    "display_name": "J. Basanavičiaus g. 95B, 57352 Kėdainiai, Lietuva",
    "query": "Baltic Petroleum, J. Basanavičiaus g. 95B, Kėdainiai, Lietuva",
    "geocode_updated_at": "2026-04-10T18:07:58.697Z",
    "status": "resolved"
  },
  {
    "station_id": "317a1913e4ba575e",
    "lat": 55.661203,
    "lon": 21.1762255,
    "display_name": "Taikos pr. 124, 94286 Klaipėda, Lietuva",
    "query": "Emsi, Taikos pr.124, Klaipėda, Lietuva",
    "geocode_updated_at": "2026-04-10T18:07:59.077Z",
    "status": "resolved"
  },
  {
    "station_id": "31ab7158c0a39dda",
    "lat": 55.5848999,
    "lon": 24.878201,
    "display_name": "Nepriklausomybės a. 32, Troškūnai, 29306 Anykščių r. sav., Lietuva",
    "query": "Narjanta, Vilniaus g. 32, Troškūnai, Lietuva",
    "geocode_updated_at": "2026-04-10T18:07:59.462Z",
    "status": "resolved"
  },
  {
    "station_id": "31b70f3f19ddc6f5",
    "lat": 55.6924129,
    "lon": 21.1536679,
    "display_name": "Taikos pr. 61b, 91182 Klaipėda, Lietuva",
    "query": "Circle K, Taikos pr. 61B, Klaipėda, Lietuva",
    "geocode_updated_at": "2026-04-10T18:07:59.839Z",
    "status": "resolved"
  },
  {
    "station_id": "31cd93d645bbb042",
    "lat": 55.9154815,
    "lon": 21.0781248,
    "display_name": "Klaipėdos pl. 44, 00111 Palanga, Lietuva",
    "query": "Baltic Petroleum, Klaipėdos pl. 44, Palanga, Lietuva",
    "geocode_updated_at": "2026-04-10T18:08:00.217Z",
    "status": "resolved"
  },
  {
    "station_id": "31cfb2c946204f9f",
    "lat": 55.6696904,
    "lon": 21.158617,
    "display_name": "Minijos g. 152, 93263 Klaipėda, Lietuva",
    "query": "Trevena, Minijos g. 152A, Klaipėda, Lietuva",
    "geocode_updated_at": "2026-04-10T18:08:00.582Z",
    "status": "resolved"
  },
  {
    "station_id": "3226225a7dc37241",
    "lat": 55.70223,
    "lon": 21.137985,
    "display_name": "Sausio 15-osios g. 2, 91200 Klaipėda, Lietuva",
    "query": "Circle K, Sausio 15-osios g. 2, Klaipėda, Lietuva",
    "geocode_updated_at": "2026-04-10T18:08:00.961Z",
    "status": "resolved"
  },
  {
    "station_id": "326493ad9f0df2e4",
    "lat": 55.92020119999999,
    "lon": 23.4259387,
    "display_name": "Plento g. 2, 80114 Kairiai, Lietuva",
    "query": "Alauša, Plento g. 2B, Kairiai, Lietuva",
    "geocode_updated_at": "2026-04-10T18:08:01.343Z",
    "status": "resolved"
  },
  {
    "station_id": "32addb4aaf9c601a",
    "lat": 56.31846600000001,
    "lon": 22.8856049,
    "display_name": "V. Kudirkos g. 21A, 85145 Naujoji Akmenė, Lietuva",
    "query": "Baltic Petroleum, V. Kudirkos g. 21A, N. Akmenė, Lietuva",
    "geocode_updated_at": "2026-04-10T18:08:01.728Z",
    "status": "resolved"
  },
  {
    "station_id": "33d549f3c4390606",
    "lat": 54.72082270000001,
    "lon": 25.2848276,
    "display_name": "Kalvarijų g. 204G, Vilnius, 02300 Vilniaus m. sav., Lietuva",
    "query": "Alauša, Kalvarijų g. 204G, Vilnius, Lietuva",
    "geocode_updated_at": "2026-04-10T18:08:02.099Z",
    "status": "resolved"
  },
  {
    "station_id": "34bc22ac3d9e95c3",
    "lat": 55.1199485,
    "lon": 26.1312768,
    "display_name": "Aukštaičių g. 2A, Cirkliškis, 18122 Švenčionių r. sav., Lietuva",
    "query": "Propano ir butano dujų centras, Aukštaičių g. 2a, Cirkliškio k., Lietuva",
    "geocode_updated_at": "2026-04-10T18:08:02.484Z",
    "status": "resolved"
  },
  {
    "station_id": "34f6bb9bcd2df41e",
    "lat": 55.137806,
    "lon": 26.155728,
    "display_name": "Mokyklos g. 23, Švenčionys, 18111 Švenčionių r. sav., Lietuva",
    "query": "RV, Mokyklos g. 23, Švenčionys, Lietuva",
    "geocode_updated_at": "2026-04-10T18:08:02.871Z",
    "status": "resolved"
  },
  {
    "station_id": "352bb1f5854645e3",
    "lat": 55.65652040000001,
    "lon": 21.1824872,
    "display_name": "Jūrininkų pr. 31, 95225 Klaipėda, Lietuva",
    "query": "Circle K, Jūrininkų pr. 31, Klaipėda, Lietuva",
    "geocode_updated_at": "2026-04-10T18:08:03.239Z",
    "status": "resolved"
  },
  {
    "station_id": "353173949c88dd6a",
    "lat": 54.4081686,
    "lon": 24.016634,
    "display_name": "Ūdrijos g. 2, 62402 Alytus, Lietuva",
    "query": "Emsi, Ūdrijos g.2, Alytus, Lietuva",
    "geocode_updated_at": "2026-04-10T18:08:03.612Z",
    "status": "resolved"
  },
  {
    "station_id": "35322905eb2c9187",
    "lat": 56.2235282,
    "lon": 23.5981685,
    "display_name": "Vilniaus g. 72, 84172 Joniškis, Lietuva",
    "query": "Baltic Petroleum, Vilniaus g. 72, Joniškis, Lietuva",
    "geocode_updated_at": "2026-04-10T18:08:04.012Z",
    "status": "resolved"
  },
  {
    "station_id": "35b6268df6c12608",
    "lat": 54.87856710000001,
    "lon": 23.9341377,
    "display_name": "A. Juozapavičiaus pr. 90, 45267 Kaunas, Lietuva",
    "query": "Viada, A. Juozapavičiaus pr. 90, Kaunas, Lietuva",
    "geocode_updated_at": "2026-04-10T18:08:04.374Z",
    "status": "resolved"
  },
  {
    "station_id": "3628372287a26119",
    "lat": 54.6441521,
    "lon": 25.2070513,
    "display_name": "Savanorių pr. 220A, 02300 Vilnius, Lietuva",
    "query": "Neste Lietuva, Savanorių pr. 220A, Vilnius, Lietuva",
    "geocode_updated_at": "2026-04-10T18:08:04.754Z",
    "status": "resolved"
  },
  {
    "station_id": "36a825a4bd6a7f06",
    "lat": 54.894036,
    "lon": 24.00687,
    "display_name": "R. Kalantos g. 159, 52314 Kaunas, Lietuva",
    "query": "Circle K, R. Kalantos g. 159, Kaunas, Lietuva",
    "geocode_updated_at": "2026-04-10T18:08:05.159Z",
    "status": "resolved"
  },
  {
    "station_id": "370c0c3f3f6defbe",
    "lat": 55.9997255,
    "lon": 22.2413577,
    "display_name": "Mažeikių g. 1, Telšiai, 87101 Telšių r. sav., Lietuva",
    "query": "Eniris, Mažeikių g. 1, Telšiai, Lietuva",
    "geocode_updated_at": "2026-04-10T18:08:05.522Z",
    "status": "resolved"
  },
  {
    "station_id": "3720628188d1388b",
    "lat": 54.9336069,
    "lon": 23.965674,
    "display_name": "Islandijos pl. 61c, 49117 Kaunas, Lietuva",
    "query": "Circle K, Islandijos pl. 61C, Kaunas, Lietuva",
    "geocode_updated_at": "2026-04-10T18:08:06.025Z",
    "status": "resolved"
  },
  {
    "station_id": "37ad15c762e57464",
    "lat": 55.6928105,
    "lon": 21.1797664,
    "display_name": "Vilniaus pl. 1A, 94105 Klaipėda, Lietuva",
    "query": "Circle K, Vilniaus pl. 1A, Klaipėda, Lietuva",
    "geocode_updated_at": "2026-04-10T18:08:06.402Z",
    "status": "resolved"
  },
  {
    "station_id": "37bfd0d7bd007361",
    "lat": 55.7288404,
    "lon": 24.3391289,
    "display_name": "Klaipėdos g. 92A-k, Panevėžys, 37383 Panevėžio m. sav., Lietuva",
    "query": "Circle K, Klaipėdos g. 92A, Panevėžys, Lietuva",
    "geocode_updated_at": "2026-04-10T18:08:06.800Z",
    "status": "resolved"
  },
  {
    "station_id": "37f956f91229d5fd",
    "lat": 54.9016257,
    "lon": 23.8949054,
    "display_name": "Jonavos g. 38, 44263 Kaunas, Lietuva",
    "query": "Circle K, Jonavos g. 38, Kaunas, Lietuva",
    "geocode_updated_at": "2026-04-10T18:08:07.177Z",
    "status": "resolved"
  },
  {
    "station_id": "386569f60428451a",
    "lat": 55.2914709,
    "lon": 23.961049,
    "display_name": "Gedimino g. 50, Kėdainiai, 57309 Kėdainių r. sav., Lietuva",
    "query": "S.Savicko įmonė, Gedimino g. 50 , Kėdainiai, Lietuva",
    "geocode_updated_at": "2026-04-13T09:44:03.665Z",
    "status": "resolved"
  },
  {
    "station_id": "38a0af67307714c4",
    "lat": 54.22072970000001,
    "lon": 23.5088049,
    "display_name": "Turistų g. 88, Lazdijai, 67102 Lazdijų r. sav., Lietuva",
    "query": "Baltic Petroleum, Turistų g. 88, Lazdijai, Lietuva",
    "geocode_updated_at": "2026-04-10T18:08:07.556Z",
    "status": "resolved"
  },
  {
    "station_id": "39018bd6c2bed7b2",
    "lat": 53.9997641,
    "lon": 23.9878736,
    "display_name": "Gardino g. 79, 69191 Druskininkai, Lietuva",
    "query": "Baltic Petroleum, Gardino g. 79, Druskininkai, Lietuva",
    "geocode_updated_at": "2026-04-10T18:08:07.939Z",
    "status": "resolved"
  },
  {
    "station_id": "395b72796606b0b0",
    "lat": 55.7372299,
    "lon": 26.2726681,
    "display_name": "Vytauto g. 61, 32139 Sarakiškės, Lietuva",
    "query": "Baltic Petroleum, Vytauto g. 61, Sarakiškių k., Lietuva",
    "geocode_updated_at": "2026-04-10T18:08:08.334Z",
    "status": "resolved"
  },
  {
    "station_id": "3965d2cbacf90369",
    "lat": 55.735112,
    "lon": 24.1242059,
    "display_name": "Bučiai, 38350 Panevėžio r. sav., Lietuva",
    "query": "Baltic Petroleum, Bučių k., Lietuva",
    "geocode_updated_at": "2026-04-10T18:08:08.733Z",
    "status": "resolved"
  },
  {
    "station_id": "397661e27dd23c17",
    "lat": 55.2779359,
    "lon": 23.9596405,
    "display_name": "J. Basanavičiaus g. 91E, 57356 Kėdainiai, Lietuva",
    "query": "Neste Lietuva, J. Basanavičiaus g. 91E, Kėdainiai, Lietuva",
    "geocode_updated_at": "2026-04-10T18:08:09.101Z",
    "status": "resolved"
  },
  {
    "station_id": "397f8f581d57d4d6",
    "lat": 54.93220359999999,
    "lon": 23.9179497,
    "display_name": "Jonavos g. 292B, Kaunas, 44131 Kauno m. sav., Lietuva",
    "query": "Emsi, Jonavos g. 292B, Kaunas, Lietuva",
    "geocode_updated_at": "2026-04-10T18:08:09.493Z",
    "status": "resolved"
  },
  {
    "station_id": "39a4027229405e9e",
    "lat": 55.9564172,
    "lon": 23.3085317,
    "display_name": "V. Bielskio g. 47A, 76159 Šiauliai, Lietuva",
    "query": "Apsaga, V. Bielskio g. 47A, Šiauliai, Lietuva",
    "geocode_updated_at": "2026-04-10T18:08:09.869Z",
    "status": "resolved"
  },
  {
    "station_id": "39b76fba8769dc97",
    "lat": 55.6433547,
    "lon": 22.9254997,
    "display_name": "V. Putvinskio g. 37, Kelmė, 86113 Kelmės r. sav., Lietuva",
    "query": "Jozita, V.Putvinskio g. 37, Kelmė, Lietuva",
    "geocode_updated_at": "2026-04-10T18:08:10.240Z",
    "status": "resolved"
  },
  {
    "station_id": "39c05639d588c1eb",
    "lat": 55.39148179999999,
    "lon": 23.1271728,
    "display_name": "Maironio g. 78, 60120 Raseiniai, Lietuva",
    "query": "Jozita, Maironio g. 78b, Raseiniai, Lietuva",
    "geocode_updated_at": "2026-04-10T18:08:10.612Z",
    "status": "resolved"
  },
  {
    "station_id": "3a8f9917192d6866",
    "lat": 55.9235477,
    "lon": 23.3501403,
    "display_name": "Vilniaus g. 16, 76265 Šiauliai, Lietuva",
    "query": "Apsaga, Vilniaus g.16, Šiauliai, Lietuva",
    "geocode_updated_at": "2026-04-10T18:08:10.995Z",
    "status": "resolved"
  },
  {
    "station_id": "3abcfeada0a0a060",
    "lat": 55.9252219,
    "lon": 23.3113008,
    "display_name": "Dubijos g. 36, 77154 Šiauliai, Lietuva",
    "query": "Boost Petrol, Dubijos g. 36, Lietuva",
    "geocode_updated_at": "2026-04-10T18:08:11.374Z",
    "status": "resolved"
  },
  {
    "station_id": "3b6e8ab5dbab16ed",
    "lat": 54.7807565,
    "lon": 25.2739158,
    "display_name": "Molėtų g. 15, Didieji Gulbinai, 14262 Vilniaus r. sav., Lietuva",
    "query": "Circle K, Molėtų g. 15, Didžiosios Riešės k., Lietuva",
    "geocode_updated_at": "2026-04-10T18:08:11.748Z",
    "status": "resolved"
  },
  {
    "station_id": "3b765a1ee64a6b58",
    "lat": 54.7015391,
    "lon": 25.2637273,
    "display_name": "Geležinio Vilko g. 37A, 08104 Vilnius, Lietuva",
    "query": "Neste Lietuva, Geležinio Vilko g. 37A, Vilnius, Lietuva",
    "geocode_updated_at": "2026-04-10T18:08:12.126Z",
    "status": "resolved"
  },
  {
    "station_id": "3ba1814f79c57ea2",
    "lat": 55.5409184,
    "lon": 25.1352032,
    "display_name": "Piliakalnio g. 9, 29109 Anykščiai, Lietuva",
    "query": "Viada, Piliakalnio g. 9, Anykščiai, Lietuva",
    "geocode_updated_at": "2026-04-10T18:08:12.521Z",
    "status": "resolved"
  },
  {
    "station_id": "3c1897f25f6a59df",
    "lat": 54.9076177,
    "lon": 23.8740371,
    "display_name": "Raudondvario pl. 82, 47179 Kaunas, Lietuva",
    "query": "Baltic Petroleum, Raudondvario pl. 82, Kaunas, Lietuva",
    "geocode_updated_at": "2026-04-10T18:08:12.901Z",
    "status": "resolved"
  },
  {
    "station_id": "3c303f4acc343d5a",
    "lat": 55.7113185,
    "lon": 21.2630853,
    "display_name": "Vilniaus pl 21, Jakai, 92498 Klaipėdos r. sav., Lietuva",
    "query": "Circle K, Vilniaus pl. 21, Jakų k., Lietuva",
    "geocode_updated_at": "2026-04-10T18:08:13.278Z",
    "status": "resolved"
  },
  {
    "station_id": "3ce4024d77de4619",
    "lat": 55.1973634,
    "lon": 23.6260825,
    "display_name": "58212 Juodgiris, Lietuva",
    "query": "Emsi, Juodgirio k.1, Lietuva",
    "geocode_updated_at": "2026-04-10T18:08:13.644Z",
    "status": "resolved"
  },
  {
    "station_id": "3d0f675dee547ea9",
    "lat": 55.6752021,
    "lon": 21.1529799,
    "display_name": "Nemuno g. 139, 93185 Klaipėda, Lietuva",
    "query": "Viada, Nemuno g. 139, Klaipėda, Lietuva",
    "geocode_updated_at": "2026-04-10T18:08:14.017Z",
    "status": "resolved"
  },
  {
    "station_id": "3d8337369b3de5f6",
    "lat": 54.9120819,
    "lon": 23.972648,
    "display_name": "Taikos pr. 80A, 51297 Kaunas, Lietuva",
    "query": "Neste Lietuva, Taikos pr. 80A, Kaunas, Lietuva",
    "geocode_updated_at": "2026-04-10T18:08:14.389Z",
    "status": "resolved"
  },
  {
    "station_id": "3da71b23f5fc6ba1",
    "lat": 54.7167228,
    "lon": 25.2289916,
    "display_name": "Taikos g. 1, Vilnius, 05263 Vilniaus m. sav., Lietuva",
    "query": "Emsi, Taikos g.1, Kreivalaužių k., Lietuva",
    "geocode_updated_at": "2026-04-10T18:08:14.777Z",
    "status": "resolved"
  },
  {
    "station_id": "3e28780dbd7b0951",
    "lat": 54.70535690000001,
    "lon": 23.5368283,
    "display_name": "Marijampolės g. 8, Didžioji Zariškė, 69453 Kazlų Rūdos sav., Lietuva",
    "query": "Gelvybė, Marijampolės g. 8, Rūdos k., Lietuva",
    "geocode_updated_at": "2026-04-10T18:08:15.150Z",
    "status": "resolved"
  },
  {
    "station_id": "3e3eb20a48051e30",
    "lat": 55.9289093,
    "lon": 23.2976593,
    "display_name": "Dubijos g. 20A, 77207 Šiauliai, Lietuva",
    "query": "Circle K, Dubijos g. 20A, Šiauliai, Lietuva",
    "geocode_updated_at": "2026-04-10T18:08:15.540Z",
    "status": "resolved"
  },
  {
    "station_id": "3e77dd3d86bd8bc2",
    "lat": 55.5225181,
    "lon": 25.087942,
    "display_name": "A. Vienuolio g. 34A, 29148 Anykščiai, Lietuva",
    "query": "Degta, Vienuolio g. 34A, Anykščiai, Lietuva",
    "geocode_updated_at": "2026-04-10T18:08:15.914Z",
    "status": "resolved"
  },
  {
    "station_id": "3e7bb5bad08f3642",
    "lat": 55.7388016,
    "lon": 24.3101947,
    "display_name": "J. Janonio g. 28, 35101 Panevėžys, Lietuva",
    "query": "Viada, J. Janonio g. 28A, Panevėžys, Lietuva",
    "geocode_updated_at": "2026-04-10T18:08:16.289Z",
    "status": "resolved"
  },
  {
    "station_id": "3eb30ea5bcf6ad46",
    "lat": 55.169438,
    "lon": 23.881275,
    "display_name": "Lietuva",
    "query": "Melkasta, Gulbiniškių k. 7, Lietuva",
    "geocode_updated_at": "2026-04-10T18:08:16.625Z",
    "status": "resolved"
  },
  {
    "station_id": "3f895870d0cda84c",
    "lat": 55.2432981,
    "lon": 22.2530352,
    "display_name": "Tilžės pl. 36, Taurai, 72142 Tauragės r. sav., Lietuva",
    "query": "Baltic Petroleum, Tilžės pl. 36, Taurų k., Lietuva",
    "geocode_updated_at": "2026-04-10T18:08:17.014Z",
    "status": "resolved"
  },
  {
    "station_id": "3f8f79cd43070296",
    "lat": 55.32029619999999,
    "lon": 24.8747095,
    "display_name": "Beržų gatvė 13, Šventupė, 20360 Ukmergės r. sav., Lietuva",
    "query": "Viada, Beržų g. 13, Šventupės k., Lietuva",
    "geocode_updated_at": "2026-04-10T18:08:17.436Z",
    "status": "resolved"
  },
  {
    "station_id": "400ba10dad8abc98",
    "lat": 55.71911429999999,
    "lon": 21.1412087,
    "display_name": "Priestočio g. 28, 92191 Klaipėda, Lietuva",
    "query": "Viada, Priestočio g. 28, Klaipėda, Lietuva",
    "geocode_updated_at": "2026-04-10T18:08:17.807Z",
    "status": "resolved"
  },
  {
    "station_id": "402284ea3998162a",
    "lat": 55.7092356,
    "lon": 24.3735706,
    "display_name": "Ramygalos g. 186G, 36224 Panevėžys, Lietuva",
    "query": "Viada, Ramygalos g. 186G, Panevėžys, Lietuva",
    "geocode_updated_at": "2026-04-10T18:08:18.181Z",
    "status": "resolved"
  },
  {
    "station_id": "4064a6f4274b63ff",
    "lat": 54.8560023,
    "lon": 23.9462992,
    "display_name": "Plento g. 1, 45398 Kaunas, Lietuva",
    "query": "Boost Petrol, Plento g. 1, Kuršukų k., Lietuva",
    "geocode_updated_at": "2026-04-10T18:08:18.557Z",
    "status": "resolved"
  },
  {
    "station_id": "40c4d479e5048c2c",
    "lat": 54.6743184,
    "lon": 25.2226626,
    "display_name": "Laisvės pr. 8, 04215 Vilnius, Lietuva",
    "query": "Viada, Laisvės pr. 8, Vilnius, Lietuva",
    "geocode_updated_at": "2026-04-10T18:08:18.917Z",
    "status": "resolved"
  },
  {
    "station_id": "40e8a05982caec90",
    "lat": 54.6709696,
    "lon": 25.1920815,
    "display_name": "Oslo g. 12, 46336 Vilnius, Lietuva",
    "query": "Circle K, Oslo g. 12, Vilnius, Lietuva",
    "geocode_updated_at": "2026-04-10T18:08:19.290Z",
    "status": "resolved"
  },
  {
    "station_id": "41484523d3b26234",
    "lat": 55.7019155,
    "lon": 21.1369403,
    "display_name": "Minijos g. 1, 91200 Klaipėda, Lietuva",
    "query": "Eniris, Minijos g. 1, Aleksandravo k., Lietuva",
    "geocode_updated_at": "2026-04-10T18:08:19.660Z",
    "status": "resolved"
  },
  {
    "station_id": "417c9931a25e90bd",
    "lat": 56.4170325,
    "lon": 22.1120467,
    "display_name": "Mažeikių g. 10, Pikeliai, 89462 Mažeikių r. sav., Lietuva",
    "query": "Tumasa, Mažeikiu g. 10, Židikai, Lietuva",
    "geocode_updated_at": "2026-04-10T18:08:20.042Z",
    "status": "resolved"
  },
  {
    "station_id": "41d08421ee211dc3",
    "lat": 55.6729648,
    "lon": 21.2010608,
    "display_name": "Plieno g. 1, 95112 Klaipėda, Lietuva",
    "query": "Neste Lietuva, Plieno g. 1, Klaipėda, Lietuva",
    "geocode_updated_at": "2026-04-10T18:08:20.403Z",
    "status": "resolved"
  },
  {
    "station_id": "41f297655a48a685",
    "lat": 54.6820633,
    "lon": 25.3138551,
    "display_name": "Olandų g. 57, 01205 Vilnius, Lietuva",
    "query": "Viada, Olandų g. 57, Vilnius, Lietuva",
    "geocode_updated_at": "2026-04-10T18:08:20.768Z",
    "status": "resolved"
  },
  {
    "station_id": "42034d88be32d1fd",
    "lat": 54.9481628,
    "lon": 24.0179148,
    "display_name": "Vijoklių g. 1, 54467 Ramučiai, Lietuva",
    "query": "Neste Lietuva, Vijoklių g. 1C, Ramučių k., Lietuva",
    "geocode_updated_at": "2026-04-10T18:08:21.142Z",
    "status": "resolved"
  },
  {
    "station_id": "4264a188f7a38eb1",
    "lat": 55.169438,
    "lon": 23.881275,
    "display_name": "Lietuva",
    "query": "Saurida, Kreivukės km., Lietuva",
    "geocode_updated_at": "2026-04-10T18:08:21.487Z",
    "status": "resolved"
  },
  {
    "station_id": "430720829feee276",
    "lat": 55.9090666,
    "lon": 23.3195017,
    "display_name": "Pramonės g. 17a, 78136 Šiauliai, Lietuva",
    "query": "Circle K, Pramonės g. 17a, Šiauliai, Lietuva",
    "geocode_updated_at": "2026-04-10T18:08:21.876Z",
    "status": "resolved"
  },
  {
    "station_id": "4392110d5cc50bff",
    "lat": 56.31873969999999,
    "lon": 22.317898,
    "display_name": "Algirdo g. 42, 89101 Mažeikiai, Lietuva",
    "query": "RV, Algirdo g. 42, Mažeikiai, Lietuva",
    "geocode_updated_at": "2026-04-10T18:08:22.247Z",
    "status": "resolved"
  },
  {
    "station_id": "439df351622702f7",
    "lat": 54.7016459,
    "lon": 23.518932,
    "display_name": "Ąžuolų Būda, Kazlų Rūdos sav., Lietuva",
    "query": "Viada, Ąžuolų Būdos k., Lietuva",
    "geocode_updated_at": "2026-04-10T18:08:22.633Z",
    "status": "resolved"
  },
  {
    "station_id": "43cc62d4c4086d2a",
    "lat": 55.6929901,
    "lon": 21.1796859,
    "display_name": "Vilniaus pl. 6-k, 94105 Klaipėda, Lietuva",
    "query": "Viada, Vilniaus pl. 6, Sudmantų k., Lietuva",
    "geocode_updated_at": "2026-04-10T18:08:23.017Z",
    "status": "resolved"
  },
  {
    "station_id": "43daf22b204ab120",
    "lat": 55.169438,
    "lon": 23.881275,
    "display_name": "Lietuva",
    "query": "Viada, Kretingsodžio k., Lietuva",
    "geocode_updated_at": "2026-04-10T18:08:23.365Z",
    "status": "resolved"
  },
  {
    "station_id": "43f650e74cac2f44",
    "lat": 55.2590225,
    "lon": 24.7905887,
    "display_name": "Kareivinių g., 20112 Ukmergė, Lietuva",
    "query": "Saurida, Ukmergė Kareivinių g. 64, Lietuva",
    "geocode_updated_at": "2026-04-10T18:08:23.729Z",
    "status": "resolved"
  },
  {
    "station_id": "440377e54c3959f3",
    "lat": 54.1691431,
    "lon": 24.2077201,
    "display_name": "Vilniaus g. 87, 65333 Merkinė, Lietuva",
    "query": "Baltic Petroleum, Vilniaus g. 87, Merkinė, Lietuva",
    "geocode_updated_at": "2026-04-10T18:08:24.124Z",
    "status": "resolved"
  },
  {
    "station_id": "4454dfbee3a456e2",
    "lat": 55.75581099999999,
    "lon": 21.1898179,
    "display_name": "Mazūriškiai, Klaipėdos r. sav., Lietuva",
    "query": "Gelvybė, Mozūriškių 10, Mozūriškiai, Lietuva",
    "geocode_updated_at": "2026-04-10T18:08:24.485Z",
    "status": "resolved"
  },
  {
    "station_id": "4459c84504918d87",
    "lat": 54.9353153,
    "lon": 23.887422,
    "display_name": "Kuršių g. 2, 48148 Kaunas, Lietuva",
    "query": "Boost Petrol, Kuršių g. 2, Maironių k., Lietuva",
    "geocode_updated_at": "2026-04-10T18:08:24.853Z",
    "status": "resolved"
  },
  {
    "station_id": "447e21a439e07db4",
    "lat": 54.6716377,
    "lon": 25.2700926,
    "display_name": "Kauno g. 26, 03212 Vilnius, Lietuva",
    "query": "Neste Lietuva, Kauno g. 26, Vilnius, Lietuva",
    "geocode_updated_at": "2026-04-10T18:08:25.243Z",
    "status": "resolved"
  },
  {
    "station_id": "45053d593e016a11",
    "lat": 54.387218,
    "lon": 24.0421474,
    "display_name": "Santaikos g. 2-k, 62133 Alytus, Lietuva",
    "query": "Alauša, Santaikos g. 2A, Santaikos k., Lietuva",
    "geocode_updated_at": "2026-04-10T18:08:25.626Z",
    "status": "resolved"
  },
  {
    "station_id": "453468827d5d584a",
    "lat": 54.7067846,
    "lon": 25.3041399,
    "display_name": "Žirmūnų g. 54 C, 09124 Vilnius, Lietuva",
    "query": "Neste Lietuva, Žirmūnų g. 54C, Vilnius, Lietuva",
    "geocode_updated_at": "2026-04-10T18:08:26.001Z",
    "status": "resolved"
  },
  {
    "station_id": "45deca09132b37d8",
    "lat": 55.97575819999999,
    "lon": 22.2636237,
    "display_name": "Masčio g. 21, 87001 Telšiai, Lietuva",
    "query": "Prie Luksto, Masčio g. 21, Telšiai, Lietuva",
    "geocode_updated_at": "2026-04-10T18:08:26.378Z",
    "status": "resolved"
  },
  {
    "station_id": "4690a63bce63f567",
    "lat": 55.681648,
    "lon": 21.1850507,
    "display_name": "Šilutės pl. 52, 94181 Klaipėda, Lietuva",
    "query": "Viada, Šilutės pl. 52, Klaipėda, Lietuva",
    "geocode_updated_at": "2026-04-10T18:08:26.759Z",
    "status": "resolved"
  },
  {
    "station_id": "469d66aaf3d37dd2",
    "lat": 54.6585353,
    "lon": 25.2663467,
    "display_name": "Prūsų g. 26-a, 02176 Vilnius, Lietuva",
    "query": "Circle K, Prūsų g. 26 A, Vilnius, Lietuva",
    "geocode_updated_at": "2026-04-10T18:08:27.133Z",
    "status": "resolved"
  },
  {
    "station_id": "469f4ad311da6c0d",
    "lat": 54.7837274,
    "lon": 23.8766639,
    "display_name": "QVMG+GM, Kauno g. 25, 53288 Ilgakiemis, Lietuva",
    "query": "Emsi, Kauno g.25, Ilgakiemio k., Lietuva",
    "geocode_updated_at": "2026-04-10T18:08:27.733Z",
    "status": "resolved"
  },
  {
    "station_id": "4719d233fd2f0003",
    "lat": 56.0429994,
    "lon": 21.8160426,
    "display_name": "Plateliai, Plungės r. sav., Lietuva",
    "query": "Baltic Petroleum, Ž. Kalvarijos g. 1A, Plateliai, Lietuva",
    "geocode_updated_at": "2026-04-10T18:08:28.101Z",
    "status": "resolved"
  },
  {
    "station_id": "4740e2f48d6b0ffe",
    "lat": 55.704925,
    "lon": 21.163317,
    "display_name": "Baltic Petroleum, Šilutės pl. 1, 91109 Klaipėda, Lietuva",
    "query": "Baltic Petroleum, Šilutės pl. 1, Klaipėda, Lietuva",
    "geocode_updated_at": "2026-04-10T18:08:28.480Z",
    "status": "resolved"
  },
  {
    "station_id": "47669fa0241cf88e",
    "lat": 54.7028609,
    "lon": 25.20391,
    "display_name": "Pilaitės pr. 13, 06264 Vilnius, Lietuva",
    "query": "Viada, Pilaitės pr. 13, Vilnius, Lietuva",
    "geocode_updated_at": "2026-04-10T18:08:28.850Z",
    "status": "resolved"
  },
  {
    "station_id": "476a15c5d212640d",
    "lat": 55.6685983,
    "lon": 21.1590641,
    "display_name": "Minijos g. 154A, 93263 Klaipėda, Lietuva",
    "query": "Emsi, Minijos g.154A, Klaipėda, Lietuva",
    "geocode_updated_at": "2026-04-10T18:08:29.226Z",
    "status": "resolved"
  },
  {
    "station_id": "4785cac7711dd74d",
    "lat": 55.5219377,
    "lon": 25.0867173,
    "display_name": "A. Vienuolio g. 34, Anykščiai, 29148 Anykščių r. sav., Lietuva",
    "query": "Viada, A. Vienuolio g. 34, Anykščiai, Lietuva",
    "geocode_updated_at": "2026-04-10T18:08:29.594Z",
    "status": "resolved"
  },
  {
    "station_id": "47f39897bfc7589f",
    "lat": 55.0788886,
    "lon": 23.3969143,
    "display_name": "S. Šimkaus g. 69, 74425 Seredžius, Lietuva",
    "query": "Gelvybė, S. Šimkaus g. 69, Seredžius, Lietuva",
    "geocode_updated_at": "2026-04-10T18:08:29.972Z",
    "status": "resolved"
  },
  {
    "station_id": "48647e9c5097b71b",
    "lat": 54.4231624,
    "lon": 24.0177078,
    "display_name": "Pramonės g. 5, 62323 Alytus, Lietuva",
    "query": "Saurida, Alytus Pramonės g. 5, Lietuva",
    "geocode_updated_at": "2026-04-10T18:08:30.415Z",
    "status": "resolved"
  },
  {
    "station_id": "48d11abdf97999b4",
    "lat": 54.6812592,
    "lon": 25.4121416,
    "display_name": "Pavilnės g. 1, 11236 Grigaičiai, Lietuva",
    "query": "Baltic Petroleum, Grigaičiai, Pavilnės g., Lietuva",
    "geocode_updated_at": "2026-04-10T18:08:30.788Z",
    "status": "resolved"
  },
  {
    "station_id": "49b9fd3dc4848a52",
    "lat": 55.0322697,
    "lon": 24.9671827,
    "display_name": "Musninkų g. 21, 19126 Širvintos, Lietuva",
    "query": "Baltic Petroleum, Musninkų g. 21, Širvintos, Lietuva",
    "geocode_updated_at": "2026-04-10T18:08:31.176Z",
    "status": "resolved"
  },
  {
    "station_id": "4af56430b63fbf52",
    "lat": 55.7050768,
    "lon": 21.2058028,
    "display_name": "Sendvario g. 2-k, 96327 Sudmantai, Lietuva",
    "query": "Neste Lietuva, Sendvario g. 2, Sudmantų k., Lietuva",
    "geocode_updated_at": "2026-04-10T18:08:31.605Z",
    "status": "resolved"
  },
  {
    "station_id": "4c322af0be090b4b",
    "lat": 55.169438,
    "lon": 23.881275,
    "display_name": "Lietuva",
    "query": "Baltic Petroleum, Vilkaraisčio k., Lietuva",
    "geocode_updated_at": "2026-04-10T18:08:31.982Z",
    "status": "resolved"
  },
  {
    "station_id": "4c6ff91f9092f572",
    "lat": 54.439648,
    "lon": 25.327295,
    "display_name": "Lydos g. 13, 17247 Jašiūnai, Lietuva",
    "query": "Viada, Lydos g. 13, Jašiūnai, Lietuva",
    "geocode_updated_at": "2026-04-10T18:08:32.358Z",
    "status": "resolved"
  },
  {
    "station_id": "4c866ff48c1a9322",
    "lat": 55.0830315,
    "lon": 22.6066372,
    "display_name": "Pašvenčio gatvė, Pašventys, 74218 Jurbarko r. sav., Lietuva",
    "query": "Saurida, Pašvenčio km., Lietuva",
    "geocode_updated_at": "2026-04-10T18:08:32.719Z",
    "status": "resolved"
  },
  {
    "station_id": "4d6f9c82ea284911",
    "lat": 54.64310010000001,
    "lon": 25.2735593,
    "display_name": "Dariaus ir Girėno g. 77, 02189 Vilnius, Lietuva",
    "query": "Baltic Petroleum, Dariaus ir Girėno g. 77, Ožtakių k., Lietuva",
    "geocode_updated_at": "2026-04-10T18:08:33.107Z",
    "status": "resolved"
  },
  {
    "station_id": "4d96856f3c339ecc",
    "lat": 55.7094271,
    "lon": 24.3748216,
    "display_name": "Ramygalos g. 145B, 36220 Panevėžys, Lietuva",
    "query": "Neste Lietuva, Ramygalos g. 145B, Panevėžys, Lietuva",
    "geocode_updated_at": "2026-04-10T18:08:33.516Z",
    "status": "resolved"
  },
  {
    "station_id": "4da5480c06473c88",
    "lat": 55.9233977,
    "lon": 21.0757934,
    "display_name": "Ganyklų g. 28C, Palanga, 00126 Palangos m. sav., Lietuva",
    "query": "Baltic Petroleum, Ganyklų g. 28C, Palanga, Lietuva",
    "geocode_updated_at": "2026-04-10T18:09:11.455Z",
    "status": "resolved"
  },
  {
    "station_id": "4da885472955ac8a",
    "lat": 55.6195059,
    "lon": 22.246124,
    "display_name": "Paršežerio g. 1, Vabalai, 75406 Šilalės r. sav., Lietuva",
    "query": "Eniris, Paršežerio g.1, Vabalų k., Lietuva",
    "geocode_updated_at": "2026-04-10T18:08:33.883Z",
    "status": "resolved"
  },
  {
    "station_id": "4dcbf4895d94ffee",
    "lat": 54.7685477,
    "lon": 22.8647095,
    "display_name": "Vilkaviškio g. 10-k, 71315 Kudirkos Naumiestis, Lietuva",
    "query": "Circle K, Vilkaviškio g. 10, Serdokų k., Lietuva",
    "geocode_updated_at": "2026-04-10T18:08:34.274Z",
    "status": "resolved"
  },
  {
    "station_id": "4dd8995bc099694b",
    "lat": 56.2838621,
    "lon": 21.8330632,
    "display_name": "Skuodo g. 7, Stripiniai, 98347 Skuodo r. sav., Lietuva",
    "query": "Eniris, Skuodo g. 7, Stripinių k., Lietuva",
    "geocode_updated_at": "2026-04-10T18:08:34.639Z",
    "status": "resolved"
  },
  {
    "station_id": "4e060a8338462f28",
    "lat": 54.897678,
    "lon": 23.958172,
    "display_name": "K. Baršausko g. 64, 44405 Kaunas, Lietuva",
    "query": "Viada, K. Baršausko g. 64, Kaunas, Lietuva",
    "geocode_updated_at": "2026-04-10T18:08:35.010Z",
    "status": "resolved"
  },
  {
    "station_id": "4e216158e95629f0",
    "lat": 55.169438,
    "lon": 23.881275,
    "display_name": "Lietuva",
    "query": "Baltic Petroleum, Valantiškio k., Lietuva",
    "geocode_updated_at": "2026-04-10T18:08:35.354Z",
    "status": "resolved"
  },
  {
    "station_id": "4e403c2008e350f6",
    "lat": 55.9057715,
    "lon": 23.258872,
    "display_name": "Gegužių g. 28, 78348 Šiauliai, Lietuva",
    "query": "Plovimo sistemos, Gegužių g. 28, Lietuva",
    "geocode_updated_at": "2026-04-10T18:08:35.713Z",
    "status": "resolved"
  },
  {
    "station_id": "4eea54d1b5d37aed",
    "lat": 54.6510853,
    "lon": 25.1502091,
    "display_name": "Kirtimų g. 23, 02244 Vilnius, Lietuva",
    "query": "Alauša, Kirtimų g. 23A, Vilnius, Lietuva",
    "geocode_updated_at": "2026-04-10T18:08:36.081Z",
    "status": "resolved"
  },
  {
    "station_id": "4f13003fb736ba4f",
    "lat": 55.1254716,
    "lon": 26.1453088,
    "display_name": "Vilniaus g. 50A, Švenčionys, 18123 Švenčionių r. sav., Lietuva",
    "query": "Viada, Vilniaus g. 50A, Švenčionys, Lietuva",
    "geocode_updated_at": "2026-04-10T18:08:36.478Z",
    "status": "resolved"
  },
  {
    "station_id": "4f3f3b9592a87072",
    "lat": 54.9273606,
    "lon": 24.0430157,
    "display_name": "Ateities pl. 105, 52119 Kaunas, Lietuva",
    "query": "Viada, Ateities pl. 105, Kaunas, Lietuva",
    "geocode_updated_at": "2026-04-10T18:08:36.863Z",
    "status": "resolved"
  },
  {
    "station_id": "4f456ba01baa3dc0",
    "lat": 55.67579809999999,
    "lon": 25.3586922,
    "display_name": "29345 Sausalaukė, Lietuva",
    "query": "Narjanta, Sausalaukės k. 2, Lietuva",
    "geocode_updated_at": "2026-04-10T18:08:37.253Z",
    "status": "resolved"
  },
  {
    "station_id": "4f4d0b96dd2097d6",
    "lat": 54.6950113,
    "lon": 25.2980008,
    "display_name": "Sporto g. 16A, 09200 Vilnius, Lietuva",
    "query": "Circle K, Sporto g. 16A, Vilnius, Lietuva",
    "geocode_updated_at": "2026-04-10T18:08:37.639Z",
    "status": "resolved"
  },
  {
    "station_id": "4f6ff8b7b0903187",
    "lat": 55.7185135,
    "lon": 21.9322127,
    "display_name": "Kvėdarnos g. 2, 90307 Vatušiai, Lietuva",
    "query": "Trevena, Kvėdarnos g. 2, Vatušių k., Lietuva",
    "geocode_updated_at": "2026-04-10T18:08:38.016Z",
    "status": "resolved"
  },
  {
    "station_id": "4f867335eeff8f34",
    "lat": 55.5051074,
    "lon": 25.6246567,
    "display_name": "J. Basanavičiaus g. 129, 28214 Utena, Lietuva",
    "query": "Neste Lietuva, J. Basanavičiaus g. 129, Utena, Lietuva",
    "geocode_updated_at": "2026-04-10T18:08:38.393Z",
    "status": "resolved"
  },
  {
    "station_id": "4ffdd848f1ea1c32",
    "lat": 55.51183690000001,
    "lon": 25.5999859,
    "display_name": "Palijoniškio g. 1, Utena, 28183 Utenos r. sav., Lietuva",
    "query": "Alauša, Palijoniškio g. 1, Utena, Lietuva",
    "geocode_updated_at": "2026-04-10T18:08:38.780Z",
    "status": "resolved"
  },
  {
    "station_id": "500cb011873b9b2c",
    "lat": 55.169438,
    "lon": 23.881275,
    "display_name": "Lietuva",
    "query": "Emsi, Raščių k. 1A, Lietuva",
    "geocode_updated_at": "2026-04-10T18:08:39.128Z",
    "status": "resolved"
  },
  {
    "station_id": "50233acc1e91e039",
    "lat": 54.6589026,
    "lon": 25.1607483,
    "display_name": "Gariūnų g. 45, 02300 Vilnius, Lietuva",
    "query": "Circle K, Gariūnų g. 45, Vilnius, Lietuva",
    "geocode_updated_at": "2026-04-10T18:08:39.502Z",
    "status": "resolved"
  },
  {
    "station_id": "51127f93cdfd6767",
    "lat": 56.004205,
    "lon": 22.2447044,
    "display_name": "Šiaulių pl. 12, 88101 Telšiai, Lietuva",
    "query": "Baltic Petroleum, Šiaulių pl. 12, Telšiai, Lietuva",
    "geocode_updated_at": "2026-04-10T18:08:39.870Z",
    "status": "resolved"
  },
  {
    "station_id": "5130cc8051f65536",
    "lat": 55.7134966,
    "lon": 24.3412264,
    "display_name": "Šilagalio g. 7, 36258 Panevėžys, Lietuva",
    "query": "Neste Lietuva, Panevėžio aplinkl. 7, Šilagalio k., Lietuva",
    "geocode_updated_at": "2026-04-10T18:08:40.240Z",
    "status": "resolved"
  },
  {
    "station_id": "5186a6ab5a57d334",
    "lat": 54.8730351,
    "lon": 25.0697176,
    "display_name": "Mokyklos g. 26, 14243 Maišiagala, Lietuva",
    "query": "Emsi, Mokyklos g. 26, Maišiagalos mstl., Lietuva",
    "geocode_updated_at": "2026-04-10T18:08:40.683Z",
    "status": "resolved"
  },
  {
    "station_id": "51feb279217b0ffd",
    "lat": 55.4985434,
    "lon": 25.5837237,
    "display_name": "Palangos g. 66, 28140 Utena, Lietuva",
    "query": "Stateta, Palangos g. 66, Utena, Lietuva",
    "geocode_updated_at": "2026-04-10T18:08:41.088Z",
    "status": "resolved"
  },
  {
    "station_id": "52501570250d5a9b",
    "lat": 54.9042544,
    "lon": 23.8798205,
    "display_name": "Betygalos g. 8, 47183 Kaunas, Lietuva",
    "query": "Jozita, Betygalos g. 8, Kaunas, Lietuva",
    "geocode_updated_at": "2026-04-10T18:08:41.507Z",
    "status": "resolved"
  },
  {
    "station_id": "52b51de0846fee63",
    "lat": 54.7214509,
    "lon": 25.2561801,
    "display_name": "S. Stanevičiaus g. 3, 07131 Vilnius, Lietuva",
    "query": "Neste Lietuva, S. Stanevičiaus g. 3, Vilnius, Lietuva",
    "geocode_updated_at": "2026-04-10T18:08:41.884Z",
    "status": "resolved"
  },
  {
    "station_id": "52bf3c87393298ac",
    "lat": 55.63479030000001,
    "lon": 22.9454358,
    "display_name": "Kęstučio g. 1B, 86140 Kelmė, Lietuva",
    "query": "Boost Petrol, Kęstučio g. 1B, Kelmė, Lietuva",
    "geocode_updated_at": "2026-04-10T18:08:42.273Z",
    "status": "resolved"
  },
  {
    "station_id": "535ba9d0d4aa026a",
    "lat": 55.169438,
    "lon": 23.881275,
    "display_name": "Lietuva",
    "query": "Orlen, Aleksandravo k., Lietuva",
    "geocode_updated_at": "2026-04-10T18:08:42.618Z",
    "status": "resolved"
  },
  {
    "station_id": "54cc9d9f51dabc4b",
    "lat": 55.56886,
    "lon": 22.1704,
    "display_name": "Kuodaičiai, Šilalės r. sav., Lietuva",
    "query": "Viada, Kuodaičių k., Lietuva",
    "geocode_updated_at": "2026-04-10T18:08:43.013Z",
    "status": "resolved"
  },
  {
    "station_id": "552c9bce21f5be78",
    "lat": 55.88186409999999,
    "lon": 23.2053094,
    "display_name": "Ilgoji g. 1, 80184 Aukštelkė, Lietuva",
    "query": "Viada, Ilgoji g. 1, Aukštelkės k., Lietuva",
    "geocode_updated_at": "2026-04-10T18:08:43.383Z",
    "status": "resolved"
  },
  {
    "station_id": "55aeb1ebca6051f6",
    "lat": 55.96078240000001,
    "lon": 23.2405273,
    "display_name": "Plento g. 2, 76322 Toliočiai, Lietuva",
    "query": "Jozita, Plento g. 2B, Toliočiai, Lietuva",
    "geocode_updated_at": "2026-04-10T18:08:43.810Z",
    "status": "resolved"
  },
  {
    "station_id": "56166fc042369de6",
    "lat": 56.0191769,
    "lon": 25.2221475,
    "display_name": "Elektrinės g. 1, Kurklaičiai I, 42379 Rokiškio r. sav., Lietuva",
    "query": "Baltic Petroleum, Elektrinės g. 1, Pandėlio k., Lietuva",
    "geocode_updated_at": "2026-04-10T18:08:44.173Z",
    "status": "resolved"
  },
  {
    "station_id": "56385b4c84872f25",
    "lat": 55.706033,
    "lon": 21.238913,
    "display_name": "Vilniaus pl. 9, Jakai, 96322 Klaipėdos r. sav., Lietuva",
    "query": "Neste Lietuva, Vilniaus pl. 9, Jakų k., Lietuva",
    "geocode_updated_at": "2026-04-10T18:08:44.553Z",
    "status": "resolved"
  },
  {
    "station_id": "5672244ad5267611",
    "lat": 56.1639383,
    "lon": 22.1015481,
    "display_name": "Gardenio g. 39, Užežerė, 89382 Mažeikių r. sav., Lietuva",
    "query": "Baltic Petroleum, Gardenio g. 39, Užežerės k., Lietuva",
    "geocode_updated_at": "2026-04-10T18:08:44.923Z",
    "status": "resolved"
  },
  {
    "station_id": "5691f76bb96a489e",
    "lat": 54.65274429999999,
    "lon": 25.3056849,
    "display_name": "Liepkalnio g. 112, 02121 Vilnius, Lietuva",
    "query": "Emsi, Liepkalnio g.112A, Vilnius, Lietuva",
    "geocode_updated_at": "2026-04-10T18:08:45.301Z",
    "status": "resolved"
  },
  {
    "station_id": "56d07b9945c12620",
    "lat": 54.7741188,
    "lon": 23.8897218,
    "display_name": "Prienų g. 22, 53288 Ilgakiemis, Lietuva",
    "query": "Viada, Prienų g. 22, Ilgakiemio k., Lietuva",
    "geocode_updated_at": "2026-04-10T18:08:45.712Z",
    "status": "resolved"
  },
  {
    "station_id": "577a0f2ce797e786",
    "lat": 55.9480257,
    "lon": 23.3204399,
    "display_name": "Žemaitės g. 131B, 76139 Šiauliai, Lietuva",
    "query": "Junasa, Žemaitės g. 131c, Lietuva",
    "geocode_updated_at": "2026-04-10T18:08:46.106Z",
    "status": "resolved"
  },
  {
    "station_id": "578859a01ea4475c",
    "lat": 54.9068329,
    "lon": 23.872848,
    "display_name": "Raudondvario pl. 103, 47185 Kaunas, Lietuva",
    "query": "Neste Lietuva, Raudondvario pl. 103, Kaunas, Lietuva",
    "geocode_updated_at": "2026-04-10T18:08:46.520Z",
    "status": "resolved"
  },
  {
    "station_id": "5835c88d7bf62599",
    "lat": 54.3761674,
    "lon": 23.1920321,
    "display_name": "Kalvarijos sav., Lietuva",
    "query": "Nostrada, Kazlavo km. 4 Kalvarijos sav., Lietuva",
    "geocode_updated_at": "2026-04-10T18:10:27.217Z",
    "status": "resolved"
  },
  {
    "station_id": "588eb527d5c866c5",
    "lat": 54.9289053,
    "lon": 24.0381504,
    "display_name": "Erdvės g. 78, 52114 Ramučiai, Lietuva",
    "query": "Stateta, Erdvės g. 78, Ramučių k., Lietuva",
    "geocode_updated_at": "2026-04-10T18:08:46.939Z",
    "status": "resolved"
  },
  {
    "station_id": "58ca64464fbf959a",
    "lat": 54.7395619,
    "lon": 23.4956687,
    "display_name": "S. Daukanto g. 19D, 69430 Kazlų Rūda, Lietuva",
    "query": "Regusa, S. Daukanto g. 19D, Kazlų Rūda, Lietuva",
    "geocode_updated_at": "2026-04-10T18:08:47.323Z",
    "status": "resolved"
  },
  {
    "station_id": "593c08bc3395f150",
    "lat": 55.070621,
    "lon": 24.26355,
    "display_name": "Vasario 16-osios g. 33, 55164 Jonava, Lietuva",
    "query": "Circle K, Vasario 16-osios g. 33, Jonava, Lietuva",
    "geocode_updated_at": "2026-04-10T18:08:47.701Z",
    "status": "resolved"
  },
  {
    "station_id": "5972c4996edd4e03",
    "lat": 54.7712399,
    "lon": 24.8207549,
    "display_name": "Kauno g. 26, 21371 Vievis, Lietuva",
    "query": "Viada, Kauno g. 26A, Vievis, Lietuva",
    "geocode_updated_at": "2026-04-10T18:08:48.084Z",
    "status": "resolved"
  },
  {
    "station_id": "598ca344b3e34585",
    "lat": 56.2706466,
    "lon": 21.5457074,
    "display_name": "Vilniaus g. 50, 98119 Skuodas, Lietuva",
    "query": "Viada, Vilniaus g. 50, Skuodas, Lietuva",
    "geocode_updated_at": "2026-04-10T18:08:48.459Z",
    "status": "resolved"
  },
  {
    "station_id": "59c4d330b4158e5f",
    "lat": 54.7139414,
    "lon": 25.2089505,
    "display_name": "Talino g. 2C, 05200 Vilnius, Lietuva",
    "query": "Neste Lietuva, Talino g. 2C, Vilnius, Lietuva",
    "geocode_updated_at": "2026-04-10T18:08:48.867Z",
    "status": "resolved"
  },
  {
    "station_id": "5a8efb4e276c9a7b",
    "lat": 55.169438,
    "lon": 23.881275,
    "display_name": "Lietuva",
    "query": "Circle K, Nekrūnų k. 1, Lietuva",
    "geocode_updated_at": "2026-04-10T18:08:49.214Z",
    "status": "resolved"
  },
  {
    "station_id": "5aa2023fb2590369",
    "lat": 54.6582669,
    "lon": 25.158891,
    "display_name": "Gariūnų g. 55, 02300 Vilnius, Lietuva",
    "query": "Neste Lietuva, Gariūnų g. 55, Vilnius, Lietuva",
    "geocode_updated_at": "2026-04-10T18:08:49.594Z",
    "status": "resolved"
  },
  {
    "station_id": "5aad2a2070e88669",
    "lat": 55.6665074,
    "lon": 21.1726827,
    "display_name": "Taikos pr. 112a, 93150 Klaipėda, Lietuva",
    "query": "Circle K, Taikos pr. 112A, Klaipėda, Lietuva",
    "geocode_updated_at": "2026-04-10T18:08:49.979Z",
    "status": "resolved"
  },
  {
    "station_id": "5b2f78ac21947bb0",
    "lat": 54.9440414,
    "lon": 24.036061,
    "display_name": "K. Bielinio g. 2A, Ramučiai, 54465 Kauno r. sav., Lietuva",
    "query": "Jozita, K. Bielinio g. 2A, Ramučiai, Lietuva",
    "geocode_updated_at": "2026-04-10T18:08:50.376Z",
    "status": "resolved"
  },
  {
    "station_id": "5bbe925a731b781a",
    "lat": 54.9270122,
    "lon": 23.6618832,
    "display_name": "Vytauto g. 20A, 53419 Zapyškis, Lietuva",
    "query": "Viada, Vytauto g. 20A, Zapyškis, Lietuva",
    "geocode_updated_at": "2026-04-10T18:08:50.751Z",
    "status": "resolved"
  },
  {
    "station_id": "5bdbbe10e3c2bc85",
    "lat": 55.5942351,
    "lon": 23.1799162,
    "display_name": "Žemaitės g. 14, 86490 Tytuvėnai, Lietuva",
    "query": "Antivis, Žemaitės g.14, Tytuvėnai, Lietuva",
    "geocode_updated_at": "2026-04-10T18:08:51.136Z",
    "status": "resolved"
  },
  {
    "station_id": "5beba82f3a1ff7da",
    "lat": 55.4858828,
    "lon": 22.1994277,
    "display_name": "Rytinio kelio g. 2A, Šilalė, 75122 Šilalės r. sav., Lietuva",
    "query": "Eniris, Rytinio Kelio g. 2a, Šilalė, Lietuva",
    "geocode_updated_at": "2026-04-10T18:08:51.535Z",
    "status": "resolved"
  },
  {
    "station_id": "5c6aba968a5d9c1a",
    "lat": 55.2156204,
    "lon": 25.2706728,
    "display_name": "Smėlinkos g., Videniškiai, 33294 Molėtų r. sav., Lietuva",
    "query": "Boost Petrol, Smėlinkos k., Lietuva",
    "geocode_updated_at": "2026-04-10T18:08:51.935Z",
    "status": "resolved"
  },
  {
    "station_id": "5c97c75a5965990d",
    "lat": 55.3053164,
    "lon": 22.0403673,
    "display_name": "Žygaičių g. 2, 73282 Žygaičiai, Lietuva",
    "query": "Madalva, Žygaičių g.2, Žygaičių k., Lietuva",
    "geocode_updated_at": "2026-04-10T18:08:52.364Z",
    "status": "resolved"
  },
  {
    "station_id": "5ce2ac5f5fd03c98",
    "lat": 55.7029618,
    "lon": 21.1652354,
    "display_name": "Šilutės pl. 5C, 91109 Klaipėda, Lietuva",
    "query": "Neste Lietuva, Šilutės pl. 5C, Klaipėda, Lietuva",
    "geocode_updated_at": "2026-04-10T18:08:52.944Z",
    "status": "resolved"
  },
  {
    "station_id": "5cebdfd1304241c3",
    "lat": 55.3859441,
    "lon": 23.0427522,
    "display_name": "Pievų g. 17, 60109 Slabada, Lietuva",
    "query": "Naftrus, Pievų g. 17, Slabados k., Lietuva",
    "geocode_updated_at": "2026-04-10T18:08:53.334Z",
    "status": "resolved"
  },
  {
    "station_id": "5cec425337c94c2c",
    "lat": 54.90100890000001,
    "lon": 24.031254,
    "display_name": "Palemono g. 3A, 52159 Kaunas, Lietuva",
    "query": "Emsi, Palemono g. 3A, Kaunas, Lietuva",
    "geocode_updated_at": "2026-04-10T18:08:53.792Z",
    "status": "resolved"
  },
  {
    "station_id": "5d4894d1a204c060",
    "lat": 55.7157344,
    "lon": 21.3807796,
    "display_name": "Laugalių g. 10, 96155 Gargždai, Lietuva",
    "query": "Trevena, Kretingos pl. 1, Gargždai, Lietuva",
    "geocode_updated_at": "2026-04-10T18:08:54.176Z",
    "status": "resolved"
  },
  {
    "station_id": "5d7ff240c433b806",
    "lat": 55.3328272,
    "lon": 26.1671776,
    "display_name": "Švenčionių g. 29A, 30132 Ignalina, Lietuva",
    "query": "Alauša, Švenčionių g. 29A, Ignalina, Lietuva",
    "geocode_updated_at": "2026-04-10T18:08:54.579Z",
    "status": "resolved"
  },
  {
    "station_id": "5e1a4858af7e1f7c",
    "lat": 55.5049719,
    "lon": 25.6210111,
    "display_name": "J. Basanavičiaus g. 108a, 28214 Utena, Lietuva",
    "query": "Circle K, J. Basanavičiaus g. 108a, Utena, Lietuva",
    "geocode_updated_at": "2026-04-10T18:08:55.007Z",
    "status": "resolved"
  },
  {
    "station_id": "5e78818fff8f2ac8",
    "lat": 54.66683519999999,
    "lon": 25.2509819,
    "display_name": "Gerosios Vilties g. 33, 03144 Vilnius, Lietuva",
    "query": "Baltic Petroleum, Gerosios Vilties g. 33, Vilnius, Lietuva",
    "geocode_updated_at": "2026-04-10T18:08:55.412Z",
    "status": "resolved"
  },
  {
    "station_id": "5e91e341f34dac69",
    "lat": 55.6926149,
    "lon": 21.1798341,
    "display_name": "Vilniaus pl. 65, 94105 Klaipėda, Lietuva",
    "query": "Viada, Vilniaus pl. 65, Gargždai, Lietuva",
    "geocode_updated_at": "2026-04-10T18:08:55.836Z",
    "status": "resolved"
  },
  {
    "station_id": "5ead27765fdf2c4c",
    "lat": 54.38191699999999,
    "lon": 23.993119,
    "display_name": "Kalninės g. 5, Likiškėliai, 62442 Alytaus r. sav., Lietuva",
    "query": "Skulas, Kalninės g. 5, Likiškėlių k., Lietuva",
    "geocode_updated_at": "2026-04-10T18:08:56.236Z",
    "status": "resolved"
  },
  {
    "station_id": "5f0a5e91d0abb8ba",
    "lat": 55.0720215,
    "lon": 24.2947884,
    "display_name": "Taurostos g. 16a, 55195 Jonava, Lietuva",
    "query": "Žibalas, Taurostos g. 16a, Jonava, Lietuva",
    "geocode_updated_at": "2026-04-10T18:08:56.603Z",
    "status": "resolved"
  },
  {
    "station_id": "5f2d02d3cd492c9d",
    "lat": 55.66814910000001,
    "lon": 21.2086508,
    "display_name": "Šilutės pl. 94, Klaipėda, 95264 Klaipėdos m. sav., Lietuva",
    "query": "Orlen, Šilutės pl. 94, Klaipėda, Lietuva",
    "geocode_updated_at": "2026-04-10T18:08:56.998Z",
    "status": "resolved"
  },
  {
    "station_id": "5f544036a374c2bd",
    "lat": 55.9049528,
    "lon": 23.3280599,
    "display_name": "Pramonės g. 28, 77116 Šiauliai, Lietuva",
    "query": "Apsaga, Pramonės g. 28, Šiauliai, Lietuva",
    "geocode_updated_at": "2026-04-10T18:08:57.378Z",
    "status": "resolved"
  },
  {
    "station_id": "5fb2bcc6ef39bc92",
    "lat": 54.54961309999999,
    "lon": 25.6799368,
    "display_name": "Pasieniečių g 10, Medininkai, 13192 Vilniaus r. sav., Lietuva",
    "query": "Emsi, Pasieniečių g.10, Medininkų k., Lietuva",
    "geocode_updated_at": "2026-04-10T18:08:57.741Z",
    "status": "resolved"
  },
  {
    "station_id": "601110a381071561",
    "lat": 55.5226524,
    "lon": 21.6180369,
    "display_name": "Veiviržėnų g. 29, Švėkšna, 99381 Šilutės r. sav., Lietuva",
    "query": "Trevena, Veiviržėnų g. 29, Pyktiškės k., Lietuva",
    "geocode_updated_at": "2026-04-10T18:08:58.124Z",
    "status": "resolved"
  },
  {
    "station_id": "60f0e66f414ec4fd",
    "lat": 54.9227321,
    "lon": 23.8699581,
    "display_name": "Baltų pr. 141, 47126 Kaunas, Lietuva",
    "query": "Jozita, Baltų pr. 141A, Kaunas, Lietuva",
    "geocode_updated_at": "2026-04-10T18:08:58.524Z",
    "status": "resolved"
  },
  {
    "station_id": "6123b1238dd5633d",
    "lat": 54.7890202,
    "lon": 24.6729244,
    "display_name": "Sabališkių g. 1U, Elektrėnai, 26124 Elektrėnų sav., Lietuva",
    "query": "Neste Lietuva, Sabališkių g. 1U, Elektrėnai, Lietuva",
    "geocode_updated_at": "2026-04-10T18:08:58.929Z",
    "status": "resolved"
  },
  {
    "station_id": "627349a33cdafb85",
    "lat": 55.95232,
    "lon": 25.5896171,
    "display_name": "Respublikos g. 111A, 42135 Rokiškis, Lietuva",
    "query": "Circle K, Respublikos g. 111A, Rokiškis, Lietuva",
    "geocode_updated_at": "2026-04-10T18:08:59.357Z",
    "status": "resolved"
  },
  {
    "station_id": "6279c75f06a9e673",
    "lat": 54.59726250000001,
    "lon": 25.3149594,
    "display_name": "Jašiūnų gatvė 2, Kineliai, 13255 Vilniaus r. sav., Lietuva",
    "query": "Jozita, Jašiūnų g. 2, Rudamina, Lietuva",
    "geocode_updated_at": "2026-04-10T18:08:59.738Z",
    "status": "resolved"
  },
  {
    "station_id": "62cbac4ba7322b23",
    "lat": 54.9516478,
    "lon": 23.8935553,
    "display_name": "Vandžiogalos pl. 86, 47478 Kaunas, Lietuva",
    "query": "Emsi, Vandžiogalos pl.86A, Kaunas, Lietuva",
    "geocode_updated_at": "2026-04-10T18:09:00.109Z",
    "status": "resolved"
  },
  {
    "station_id": "62ed14e8f2f56cc1",
    "lat": 54.7025052,
    "lon": 25.2190485,
    "display_name": "Justiniškių g. 12, 05131 Vilnius, Lietuva",
    "query": "Viada, Justiniškių g. 12, Vilnius, Lietuva",
    "geocode_updated_at": "2026-04-10T18:09:00.511Z",
    "status": "resolved"
  },
  {
    "station_id": "636a6c8970498c6d",
    "lat": 55.3707396,
    "lon": 23.1327148,
    "display_name": "Vilniaus g. 30, 60183 Raseiniai, Lietuva",
    "query": "Baltic Petroleum, Vilniaus g. 30, Raseiniai, Lietuva",
    "geocode_updated_at": "2026-04-10T18:09:00.927Z",
    "status": "resolved"
  },
  {
    "station_id": "6380e3dbf05b7a1a",
    "lat": 54.6517899,
    "lon": 25.2699179,
    "display_name": "Eišiškių pl. 11, 02184 Vilnius, Lietuva",
    "query": "Circle K, Eišiškių pl. 11, Vilnius, Lietuva",
    "geocode_updated_at": "2026-04-10T18:09:01.310Z",
    "status": "resolved"
  },
  {
    "station_id": "638de0cecc104dce",
    "lat": 55.91373729999999,
    "lon": 23.3369801,
    "display_name": "Serbentų g. 82, 77126 Šiauliai, Lietuva",
    "query": "Orlen, Serbentų g. 82, Šiauliai, Lietuva",
    "geocode_updated_at": "2026-04-10T18:09:01.684Z",
    "status": "resolved"
  },
  {
    "station_id": "63a1bf9707a1ba65",
    "lat": 55.7367365,
    "lon": 24.3872456,
    "display_name": "Venslaviškio g. 16, 35116 Panevėžys, Lietuva",
    "query": "Viada, Venslaviškio g. 16, Panevėžys, Lietuva",
    "geocode_updated_at": "2026-04-10T18:09:02.061Z",
    "status": "resolved"
  },
  {
    "station_id": "63ca617bb234511d",
    "lat": 54.92932649999999,
    "lon": 23.9734721,
    "display_name": "Savanorių pr. 441C, 49185 Kaunas, Lietuva",
    "query": "Neste Lietuva, Savanorių pr. 441C, Kaunas, Lietuva",
    "geocode_updated_at": "2026-04-10T18:09:02.432Z",
    "status": "resolved"
  },
  {
    "station_id": "63f1b9122ed016d0",
    "lat": 54.6528868,
    "lon": 25.2720204,
    "display_name": "Dariaus ir Girėno g. 30a, 02169 Vilnius, Lietuva",
    "query": "Viada, Dariaus ir Girėno g. 30A, Vilnius, Lietuva",
    "geocode_updated_at": "2026-04-10T18:09:02.814Z",
    "status": "resolved"
  },
  {
    "station_id": "64c15b5ce06b6a8d",
    "lat": 54.7447908,
    "lon": 25.2769393,
    "display_name": "Mokyklos g. 2, 08414 Vilnius, Lietuva",
    "query": "Jozita, Mokyklos g. 2, Trepkalnių k., Lietuva",
    "geocode_updated_at": "2026-04-10T18:09:03.220Z",
    "status": "resolved"
  },
  {
    "station_id": "64eb903f2caebc8e",
    "lat": 55.2441596,
    "lon": 24.7498135,
    "display_name": "Kauno g. 37, 20120 Ukmergė, Lietuva",
    "query": "Alauša, Kauno g. 37, Ukmergė, Lietuva",
    "geocode_updated_at": "2026-04-10T18:09:03.625Z",
    "status": "resolved"
  },
  {
    "station_id": "66331ef8fa57d57f",
    "lat": 55.266503,
    "lon": 22.3114725,
    "display_name": "Dariaus ir Girėno g. 138, 72194 Tauragė, Lietuva",
    "query": "Viada, Dariaus ir Girėno g. 138A, Tauragė, Lietuva",
    "geocode_updated_at": "2026-04-10T18:09:03.994Z",
    "status": "resolved"
  },
  {
    "station_id": "6638d92dc9f0d86d",
    "lat": 56.0023165,
    "lon": 22.9384959,
    "display_name": "Kuršėnai, Šiaulių r. sav., Lietuva",
    "query": "Circle K, Plento g. 1, Kuršėnai, Lietuva",
    "geocode_updated_at": "2026-04-10T18:09:04.376Z",
    "status": "resolved"
  },
  {
    "station_id": "66b5def6f56340e7",
    "lat": 54.7534623,
    "lon": 25.2117448,
    "display_name": "Ukmergės g. 437, Bukiškis, 14183 Vilniaus r. sav., Lietuva",
    "query": "Emsi, Bukiškio k. Ukmergės g.437, Lietuva",
    "geocode_updated_at": "2026-04-10T18:09:04.808Z",
    "status": "resolved"
  },
  {
    "station_id": "672fa13ed1ac3739",
    "lat": 55.09377800000001,
    "lon": 24.2826249,
    "display_name": "Darbininkų g. 4D, 55101 Jonava, Lietuva",
    "query": "Viada, Darbininkų g. 4D, Jonava, Lietuva",
    "geocode_updated_at": "2026-04-10T18:09:05.183Z",
    "status": "resolved"
  },
  {
    "station_id": "6732734a41a1a152",
    "lat": 56.0240532,
    "lon": 24.3694172,
    "display_name": "Baltijos Kelio gatvė 2, 39199 Talačkoniai, Lietuva",
    "query": "Emsi, Baltijos kelio g.2, Sereikonių k., Lietuva",
    "geocode_updated_at": "2026-04-10T18:09:05.624Z",
    "status": "resolved"
  },
  {
    "station_id": "67db205b29551eb2",
    "lat": 54.0302534,
    "lon": 23.9835633,
    "display_name": "Leipalingio g. 26, Druskininkai, 66371 Druskininkų sav., Lietuva",
    "query": "Baltic Petroleum, Leipalingio g. 26, Druskininkai, Lietuva",
    "geocode_updated_at": "2026-04-10T18:09:06.015Z",
    "status": "resolved"
  },
  {
    "station_id": "68b12cd8837801a8",
    "lat": 55.169438,
    "lon": 23.881275,
    "display_name": "Lietuva",
    "query": "Orlen, Pikelių k. 8, Lietuva",
    "geocode_updated_at": "2026-04-10T18:09:06.362Z",
    "status": "resolved"
  },
  {
    "station_id": "692c106ef8a7b465",
    "lat": 54.7364512,
    "lon": 25.2657168,
    "display_name": "Baltupio g. 10, 08303 Vilnius, Lietuva",
    "query": "Circle K, Baltupio g. 10, Vilnius, Lietuva",
    "geocode_updated_at": "2026-04-10T18:09:06.743Z",
    "status": "resolved"
  },
  {
    "station_id": "697a143a6a0304d8",
    "lat": 55.56684989999999,
    "lon": 21.9966148,
    "display_name": "Papynaujo kaimas, Dvaro g 5, 75342 Papynaujis, Lietuva",
    "query": "Pynauja, Dvaro g.1, Papynaujo k.,Kvėdarna, Lietuva",
    "geocode_updated_at": "2026-04-10T18:09:07.134Z",
    "status": "resolved"
  },
  {
    "station_id": "69c17499bce47e5d",
    "lat": 54.2396822,
    "lon": 23.5443851,
    "display_name": "Panarvės g., Panarvė, 67168 Lazdijų r. sav., Lietuva",
    "query": "Saurida, Panarvės km., Lietuva",
    "geocode_updated_at": "2026-04-10T18:09:07.500Z",
    "status": "resolved"
  },
  {
    "station_id": "69ca85d81d910ad1",
    "lat": 55.0825112,
    "lon": 22.7890724,
    "display_name": "S. Daukanto g. 66, 74170 Jurbarkas, Lietuva",
    "query": "Gelvybė, S. Daukanto g. 66, Jurbarkas, Lietuva",
    "geocode_updated_at": "2026-04-10T18:09:07.870Z",
    "status": "resolved"
  },
  {
    "station_id": "69e68eb97edf1fef",
    "lat": 55.9707225,
    "lon": 23.5874237,
    "display_name": "Topolių g. 1, Degučiai, 83291 Pakruojo r. sav., Lietuva",
    "query": "Naftrus, Topolių g. 1, Degučių k., Lietuva",
    "geocode_updated_at": "2026-04-10T18:09:08.278Z",
    "status": "resolved"
  },
  {
    "station_id": "6d59dcc3bdef4ea5",
    "lat": 54.88948329999999,
    "lon": 23.804659,
    "display_name": "Gėlių g. 1A, Ringaudai, 53335 Kauno r. sav., Lietuva",
    "query": "Baltic Petroleum, Gėlių g. 1A, Ringaudų k., Lietuva",
    "geocode_updated_at": "2026-04-10T18:09:08.678Z",
    "status": "resolved"
  },
  {
    "station_id": "6db6067b744e86cd",
    "lat": 54.8522188,
    "lon": 23.1761064,
    "display_name": "A. Skelčio g, 71296 Griškabūdis, Lietuva",
    "query": "Baltic Petroleum, Griškabūdis, Lietuva",
    "geocode_updated_at": "2026-04-10T18:09:09.037Z",
    "status": "resolved"
  },
  {
    "station_id": "6e2d1462833f8426",
    "lat": 55.8007102,
    "lon": 23.5654157,
    "display_name": "Miško g. 64, 82128 Radviliškis, Lietuva",
    "query": "Baltic Petroleum, Miško g. 64, Radviliškis, Lietuva",
    "geocode_updated_at": "2026-04-10T18:09:09.458Z",
    "status": "resolved"
  },
  {
    "station_id": "6e56a279931dc42d",
    "lat": 55.7074247,
    "lon": 21.380302,
    "display_name": "Dariaus ir Girėno g. 10, Gargždai, 96144 Klaipėdos r. sav., Lietuva",
    "query": "Baltic Petroleum, Dariaus ir Girėno g. 10, Gargždai, Lietuva",
    "geocode_updated_at": "2026-04-10T18:09:09.843Z",
    "status": "resolved"
  },
  {
    "station_id": "6ea747cb4d01cddf",
    "lat": 55.72830800000001,
    "lon": 24.3324213,
    "display_name": "Klaipėdos g. 81, 37106 Panevėžys, Lietuva",
    "query": "Neste Lietuva, Klaipėdos g. 81, Panevėžys, Lietuva",
    "geocode_updated_at": "2026-04-10T18:09:10.253Z",
    "status": "resolved"
  },
  {
    "station_id": "6eb2582c137b828e",
    "lat": 54.8753312,
    "lon": 23.9114672,
    "display_name": "Europos pr. 43, 46329 Kaunas, Lietuva",
    "query": "Neste Lietuva, Europos pr. 43, Kaunas, Lietuva",
    "geocode_updated_at": "2026-04-10T18:09:10.678Z",
    "status": "resolved"
  },
  {
    "station_id": "6ebfce453f112c97",
    "lat": 55.3703989,
    "lon": 23.132299,
    "display_name": "Vilniaus g. 3B, 60187 Raseiniai, Lietuva",
    "query": "Naftrus, Vilniaus g. 3B, Raseiniai, Lietuva",
    "geocode_updated_at": "2026-04-10T18:09:11.078Z",
    "status": "resolved"
  },
  {
    "station_id": "6ee6a4e025cba345",
    "lat": 55.9233977,
    "lon": 21.0757934,
    "display_name": "Ganyklų g. 28C, Palanga, 00126 Palangos m. sav., Lietuva",
    "query": "Baltic Petroleum, Ganyklų g. 28C, Palanga, Lietuva",
    "geocode_updated_at": "2026-04-10T18:09:11.455Z",
    "status": "resolved"
  },
  {
    "station_id": "6f1cef2deae8d8d5",
    "lat": 54.0102854,
    "lon": 23.9933783,
    "display_name": "M. K. Čiurlionio g. 113, 66161 Druskininkai, Lietuva",
    "query": "Circle K, M. K. Čiurlionio g. 113, Druskininkai, Lietuva",
    "geocode_updated_at": "2026-04-10T18:09:11.845Z",
    "status": "resolved"
  },
  {
    "station_id": "700d99f99deb1b85",
    "lat": 54.32043669999999,
    "lon": 23.1399587,
    "display_name": "Europos g. 17, Salaperaugis, 69286 Kalvarijos sav., Lietuva",
    "query": "Alauša, Europos g. 17, Salaperaugio k., Lietuva",
    "geocode_updated_at": "2026-04-10T18:11:29.446Z",
    "status": "resolved"
  },
  {
    "station_id": "7085270b92e7750d",
    "lat": 55.97666899999999,
    "lon": 25.824976,
    "display_name": "Dumblės, Rokiškio r. sav., Lietuva",
    "query": "Tomega, Dumblės k., Lietuva",
    "geocode_updated_at": "2026-04-10T18:09:12.207Z",
    "status": "resolved"
  },
  {
    "station_id": "7087431c041ae056",
    "lat": 54.6434145,
    "lon": 25.0533766,
    "display_name": "Sodų g. 3, 25117 Lentvaris, Lietuva",
    "query": "Emsi, Sodų g.3A, Lentvaris, Lietuva",
    "geocode_updated_at": "2026-04-10T18:09:12.589Z",
    "status": "resolved"
  },