[
  {
    "station_id": "00d67077c92a9f32",
    "lat": null,
    "lon": null,
    "display_name": null,
    "query": "Brazdigalos k. 1, Lietuva",
    "geocode_updated_at": null,
    "status": "unresolved"
  },
  {
    "station_id": "01aa5851e3056137",
    "lat": 54.9180087,
    "lon": 23.8736664,
    "display_name": "Viada, 90B, Baltijos g., Smėliai, Šilainių seniūnija, Kaunas, Kauno miesto savivaldybė, Kauno apskritis, 47133, Lietuva",
    "query": "Baltijos g. 90B, Kaunas, Lietuva",
    "geocode_updated_at": "2026-04-09T06:44:38.987Z",
    "status": "resolved"
  },
  {
    "station_id": "0263182de79b2f6e",
    "lat": 56.0695312,
    "lon": 24.3878814,
    "display_name": "Skulas, 2E, Mūšos g., Pasvalys, Pasvalio apylinkių seniūnija, Pasvalio rajono savivaldybė, Panevėžio apskritis, 39105, Lietuva",
    "query": "Mūšos g. 2 E, Pasvalys, Lietuva",
    "geocode_updated_at": "2026-04-09T06:44:01.223Z",
    "status": "resolved"
  },
  {
    "station_id": "02694b0ce0025c29",
    "lat": 54.5762251,
    "lon": 23.3715049,
    "display_name": "Circle K „Marijampolė“, 130, Kauno g., Pramonė, Marijampolė, Marijampolės savivaldybė, Marijampolės apskritis, 68230, Lietuva",
    "query": "Kauno g. 130, Marijampolė, Lietuva",
    "geocode_updated_at": "2026-04-09T06:37:56.222Z",
    "status": "resolved"
  },
  {
    "station_id": "037d0e8f2f372525",
    "lat": null,
    "lon": null,
    "display_name": null,
    "query": "Klaipėda Jūrininkų pr. 29, Lietuva",
    "geocode_updated_at": null,
    "status": "unresolved"
  },
  {
    "station_id": "047fb18c09c9d059",
    "lat": 54.641028,
    "lon": 25.1841354,
    "display_name": "EMSI, 225, Savanorių pr., Panerių seniūnija, Vilnius, Vilniaus miesto savivaldybė, Vilniaus apskritis, 02300, Lietuva",
    "query": "Savanorių 225, Vilnius, Lietuva",
    "geocode_updated_at": "2026-04-09T12:26:29.746Z",
    "status": "resolved"
  },
  {
    "station_id": "04af31c4d5621882",
    "lat": 54.7676771,
    "lon": 25.2725427,
    "display_name": "Baltic Petroleum, 27A, Molėtų pl., Skersinė, Verkių seniūnija, Vilnius, Vilniaus miesto savivaldybė, Vilniaus apskritis, 08409, Lietuva",
    "query": "Molėtų pl. 27A, Vilnius, Lietuva",
    "geocode_updated_at": "2026-04-09T06:36:39.032Z",
    "status": "resolved"
  },
  {
    "station_id": "04da36512ac63f78",
    "lat": null,
    "lon": null,
    "display_name": null,
    "query": "Marijampolė Statybininkų g. 8, Lietuva",
    "geocode_updated_at": null,
    "status": "unresolved"
  },
  {
    "station_id": "0521dd846c33bfeb",
    "lat": 55.9225031,
    "lon": 23.3579554,
    "display_name": "Viada, 2, Užmiesčio g., Zokniai, Šiauliai, Šiaulių miesto savivaldybė, Šiaulių apskritis, 76273, Lietuva",
    "query": "Užmiesčio g. 2, Šiauliai, Lietuva",
    "geocode_updated_at": "2026-04-09T06:46:12.985Z",
    "status": "resolved"
  },
  {
    "station_id": "052ba1f87a69214b",
    "lat": 54.646852,
    "lon": 25.2103082,
    "display_name": "Dovelo, 187, Savanorių pr., Žemieji Paneriai, Vilkpėdės seniūnija, Vilnius, Vilniaus miesto savivaldybė, Vilniaus apskritis, 02301, Lietuva",
    "query": "Savanorių pr. 187, Vilnius, Lietuva",
    "geocode_updated_at": "2026-04-09T06:42:54.139Z",
    "status": "resolved"
  },
  {
    "station_id": "0595d03413da1254",
    "lat": 54.9213913,
    "lon": 23.8105362,
    "display_name": "Viada, 288, Raudondvario pl., Žemutiniai Kaniūkai, Vilijampolės seniūnija, Kaunas, Kauno miesto savivaldybė, Kauno apskritis, 47164, Lietuva",
    "query": "Raudondvario pl. 288, Kaunas, Lietuva",
    "geocode_updated_at": "2026-04-09T06:44:52.827Z",
    "status": "resolved"
  },
  {
    "station_id": "0597dd23f777d845",
    "lat": null,
    "lon": null,
    "display_name": null,
    "query": "Klaipėdos g. 39, Gargždai, Lietuva",
    "geocode_updated_at": null,
    "status": "unresolved"
  },
  {
    "station_id": "05d0a6275eb5b482",
    "lat": 55.9441123,
    "lon": 23.3313703,
    "display_name": "Viada, 274, Tilžės g., Kalniukas, Šiauliai, Šiaulių miesto savivaldybė, Šiaulių apskritis, 76201, Lietuva",
    "query": "Tilžės g. 274, Šiauliai, Lietuva",
    "geocode_updated_at": "2026-04-09T06:46:11.748Z",
    "status": "resolved"
  },
  {
    "station_id": "060958110393af48",
    "lat": 54.9182066,
    "lon": 24.0396673,
    "display_name": "Viada, 37A, Ateities pl., Palemonas, Petrašiūnų seniūnija, Kaunas, Kauno miesto savivaldybė, Kauno apskritis, 52119, Lietuva",
    "query": "Ateities pl. 37A, Kaunas, Lietuva",
    "geocode_updated_at": "2026-04-09T06:44:37.751Z",
    "status": "resolved"
  },
  {
    "station_id": "0650454cfb481710",
    "lat": null,
    "lon": null,
    "display_name": null,
    "query": "Paširvio g. 1, Paširvinčio k., Lietuva",
    "geocode_updated_at": null,
    "status": "unresolved"
  },
  {
    "station_id": "067fa9a55d1ab5c4",
    "lat": 54.9138013,
    "lon": 23.9068499,
    "display_name": "Orlen, 50, Varnių g., Panerys, Vilijampolės seniūnija, Kaunas, Kauno miesto savivaldybė, Kauno apskritis, 48400, Lietuva",
    "query": "Varnių g. 50, Kaunas, Lietuva",
    "geocode_updated_at": "2026-04-09T06:43:15.074Z",
    "status": "resolved"
  },
  {
    "station_id": "0686eac11292010b",
    "lat": null,
    "lon": null,
    "display_name": null,
    "query": "Katyčių k., Šilalės r., Lietuva",
    "geocode_updated_at": null,
    "status": "unresolved"
  },
  {
    "station_id": "06e14a66821ca931",
    "lat": null,
    "lon": null,
    "display_name": null,
    "query": "Plytinės g. 2, Puskelnių k., Lietuva",
    "geocode_updated_at": null,
    "status": "unresolved"
  },
  {
    "station_id": "0783f7e225b3f740",
    "lat": null,
    "lon": null,
    "display_name": null,
    "query": "Pikelių k. 1, Lietuva",
    "geocode_updated_at": null,
    "status": "unresolved"
  },
  {
    "station_id": "07edcba30c67874c",
    "lat": 56.3003937,
    "lon": 22.3606684,
    "display_name": "Viada, 75, Žemaitijos g., Mažeikiai, Mažeikių seniūnija, Mažeikių rajono savivaldybė, Telšių apskritis, 89238, Lietuva",
    "query": "Žemaitijos g. 75, Mažeikiai, Lietuva",
    "geocode_updated_at": "2026-04-09T06:45:34.141Z",
    "status": "resolved"
  },
  {
    "station_id": "0808d78d9c50da19",
    "lat": 55.8988643,
    "lon": 23.271743,
    "display_name": "CPB, 5, Sembos g., Kamčiatka, Gegužiai, Šiauliai, Šiaulių miesto savivaldybė, Šiaulių apskritis, 78311, Lietuva",
    "query": "Sembos g.5, Šiauliai, Lietuva",
    "geocode_updated_at": "2026-04-09T12:26:08.885Z",
    "status": "resolved"
  },
  {
    "station_id": "083ac5fc9c5699a5",
    "lat": null,
    "lon": null,
    "display_name": null,
    "query": "Bačiūnų g. 12a, Lietuva",
    "geocode_updated_at": null,
    "status": "unresolved"
  },
  {
    "station_id": "088e99889af27280",
    "lat": 55.0322671,
    "lon": 24.9671225,
    "display_name": "Baltic Petroleum, 21, Musninkų g., Širvintos, Širvintų seniūnija, Širvintų rajono savivaldybė, Vilniaus apskritis, 19125, Lietuva",
    "query": "Musninkų g. 21, Širvintos, Lietuva",
    "geocode_updated_at": "2026-04-09T06:36:17.824Z",
    "status": "resolved"
  },
  {
    "station_id": "08a5f4c9b554ea40",
    "lat": 55.2676804,
    "lon": 23.4707004,
    "display_name": "Žemaičių g., Ariogala, Ariogalos miesto seniūnija, Raseinių rajono savivaldybė, Kauno apskritis, 60251, Lietuva",
    "query": "Žemaičių g. 34, Ariogala, Lietuva",
    "geocode_updated_at": "2026-04-09T12:26:07.059Z",
    "status": "resolved"
  },
  {
    "station_id": "08b03124ccc6ac27",
    "lat": null,
    "lon": null,
    "display_name": null,
    "query": "Telšių g. 2 b, Rainių k., Lietuva",
    "geocode_updated_at": null,
    "status": "unresolved"
  },
  {
    "station_id": "09addf5eea196c9c",
    "lat": 54.4140413,
    "lon": 24.0101635,
    "display_name": "Viada, 27, Naujoji g., Putinai, Alytus, Alytaus miesto savivaldybė, Alytaus apskritis, 62175, Lietuva",
    "query": "Naujoji g. 27, Alytus, Lietuva",
    "geocode_updated_at": "2026-04-09T06:44:13.745Z",
    "status": "resolved"
  },
  {
    "station_id": "0ab609a1bc0f8ba9",
    "lat": 54.8930507,
    "lon": 23.9958043,
    "display_name": "Circle K 1-2-3 „Kalanta“, 68, R. Kalantos g., Petrašiūnai, Petrašiūnų seniūnija, Kaunas, Kauno miesto savivaldybė, Kauno apskritis, 52365, Lietuva",
    "query": "R. Kalantos g. 68, Kaunas, Lietuva",
    "geocode_updated_at": "2026-04-09T06:37:19.455Z",
    "status": "resolved"
  },
  {
    "station_id": "0b2654ea6819a833",
    "lat": null,
    "lon": null,
    "display_name": null,
    "query": "Alytus Miškininkų g. 7, Lietuva",
    "geocode_updated_at": null,
    "status": "unresolved"
  },
  {
    "station_id": "0b77d54d6a5ec1aa",
    "lat": null,
    "lon": null,
    "display_name": null,
    "query": "Kauno g. 68, Girėnų k., Lietuva",
    "geocode_updated_at": null,
    "status": "unresolved"
  },
  {
    "station_id": "0bcd836a1a486540",
    "lat": 55.9030642,
    "lon": 21.8302735,
    "display_name": "Viada, 102, J. Tumo-Vaižganto g., Plungė, Plungės miesto seniūnija, Plungės rajono savivaldybė, Telšių apskritis, 90142, Lietuva",
    "query": "J. Tumo-Vaižganto g. 102, Plungė, Lietuva",
    "geocode_updated_at": "2026-04-09T06:45:56.625Z",
    "status": "resolved"
  },
  {
    "station_id": "0bfe73c68ca31b29",
    "lat": null,
    "lon": null,
    "display_name": null,
    "query": "Muitinės g. 34A, Jurbarkas, Lietuva",
    "geocode_updated_at": null,
    "status": "unresolved"
  },
  {
    "station_id": "0c0f472f68977887",
    "lat": 54.8990388,
    "lon": 23.9599289,
    "display_name": "Circle K „Baršausko“, 57, K. Baršausko g., Gričiupis, Gričiupio seniūnija, Kaunas, Kauno miesto savivaldybė, Kauno apskritis, 51423, Lietuva",
    "query": "K. Baršausko g. 57, Kaunas, Lietuva",
    "geocode_updated_at": "2026-04-09T06:37:14.167Z",
    "status": "resolved"
  },
  {
    "station_id": "0c5a3905f84c685a",
    "lat": 55.266997,
    "lon": 22.3098059,
    "display_name": "Circle K „Automatas Tauragė“, 83A, Dariaus ir Girėno g., Beržės, Tauragė, Tauragės miesto seniūnija, Tauragės rajono savivaldybė, Tauragės apskritis, 72192, Lietuva",
    "query": "Dariaus ir Girėno g. 83A, Tauragė, Lietuva",
    "geocode_updated_at": "2026-04-09T06:38:21.033Z",
    "status": "resolved"
  },
  {
    "station_id": "0c868b5b768d7572",
    "lat": null,
    "lon": null,
    "display_name": null,
    "query": "Verslo g. 2, Virbališkių k., Lietuva",
    "geocode_updated_at": null,
    "status": "unresolved"
  },
  {
    "station_id": "0ce4e3cc1cb04e25",
    "lat": 54.9144567,
    "lon": 23.9002271,
    "display_name": "Circle K 1-2-3 „Šilkas“, 46, Varnių g., Panerys, Vilijampolės seniūnija, Kaunas, Kauno miesto savivaldybė, Kauno apskritis, 48403, Lietuva",
    "query": "Varnių g. 46, Kaunas, Lietuva",
    "geocode_updated_at": "2026-04-09T06:37:30.205Z",
    "status": "resolved"
  },
  {
    "station_id": "0d104fa9714e5c4b",
    "lat": null,
    "lon": null,
    "display_name": null,
    "query": "Taurostos g. 16a, Jonava, Lietuva",
    "geocode_updated_at": null,
    "status": "unresolved"
  },
  {
    "station_id": "0d16302824f4fa4b",
    "lat": 55.7192745,
    "lon": 21.1411712,
    "display_name": "Viada, 28, Priestočio g., Kretinga, Naujamiestis, Centras, Klaipėda, Klaipėdos miesto savivaldybė, Klaipėdos apskritis, 92228, Lietuva",
    "query": "Priestočio g. 28, Klaipėda, Lietuva",
    "geocode_updated_at": "2026-04-09T06:45:16.795Z",
    "status": "resolved"
  },
  {
    "station_id": "0d2d38105b17cdd8",
    "lat": 55.6847139,
    "lon": 21.1505231,
    "display_name": "Green Park Hotel Klaipėda, 119, Minijos g., Žvejų sodyba, Rumpiškė, Klaipėda, Klaipėdos miesto savivaldybė, Klaipėdos apskritis, 93231, Lietuva",
    "query": "Minijos g. 119, Klaipėda, Lietuva",
    "geocode_updated_at": "2026-04-09T06:41:39.981Z",
    "status": "resolved"
  },
  {
    "station_id": "0d3858124214aea5",
    "lat": 54.9270913,
    "lon": 23.6619908,
    "display_name": "Viada, 20A, Vytauto g., Zapyškis, Zapyškio seniūnija, Kauno rajono savivaldybė, Kauno apskritis, 53419, Lietuva",
    "query": "Vytauto g. 20A, Zapyškis, Lietuva",
    "geocode_updated_at": "2026-04-09T06:45:06.882Z",
    "status": "resolved"
  },
  {
    "station_id": "0daffb8e91ce256c",
    "lat": 55.4969921,
    "lon": 25.6307847,
    "display_name": "Viada, 8, Metalo g., Pramonės rajonas, Utena, Utenos miesto seniūnija, Utenos rajono savivaldybė, Utenos apskritis, 28217, Lietuva",
    "query": "Metalo g. 8, Utena, Lietuva",
    "geocode_updated_at": "2026-04-09T06:46:39.281Z",
    "status": "resolved"
  },
  {
    "station_id": "0dc334dc495f1465",
    "lat": 55.7531878,
    "lon": 24.3120183,
    "display_name": "Baltic Petroleum, 193A, Pušaloto g., Panevėžys, Panevėžio miesto savivaldybė, Panevėžio apskritis, 35291, Lietuva",
    "query": "Pušaloto g. 193A, Panevėžys, Lietuva",
    "geocode_updated_at": "2026-04-09T06:45:42.004Z",
    "status": "resolved"
  },
  {
    "station_id": "0dce4359092fd834",
    "lat": 54.669143,
    "lon": 25.2787962,
    "display_name": "Alauša, 44, Šv. Stepono g., Naujamiestis, Naujamiesčio seniūnija, Vilnius, Vilniaus miesto savivaldybė, Vilniaus apskritis, 01312, Lietuva",
    "query": "Šv. Stepono g. 44, Vilnius, Lietuva",
    "geocode_updated_at": "2026-04-09T11:32:53.909Z",
    "status": "resolved"
  },
  {
    "station_id": "0de8e228f932460f",
    "lat": 55.6938676,
    "lon": 21.1402705,
    "display_name": "Orlen, 44, Minijos g., Špichuto dvaras, Senamiestis, Klaipėda, Klaipėdos miesto savivaldybė, Klaipėdos apskritis, 91197, Lietuva",
    "query": "Minijos g. 44, Klaipėda, Lietuva",
    "geocode_updated_at": "2026-04-09T06:43:20.506Z",
    "status": "resolved"
  },
  {
    "station_id": "0deb8d5dab49016a",
    "lat": 54.567734,
    "lon": 23.3393257,
    "display_name": "Viada, 2, J. Ambrazevičiaus-Brazaičio g., Mokolai, Marijampolė, Marijampolės savivaldybė, Marijampolės apskritis, 68160, Lietuva",
    "query": "J. Ambrazevičiaus-Brazaičio g. 2, Marijampolė, Lietuva",
    "geocode_updated_at": "2026-04-09T06:45:30.118Z",
    "status": "resolved"
  },
  {
    "station_id": "0e03498cf93772cd",
    "lat": null,
    "lon": null,
    "display_name": null,
    "query": "Sodo g. 11, Gavaltuvos k., Lietuva",
    "geocode_updated_at": null,
    "status": "unresolved"
  },
  {
    "station_id": "0eb904062c73eb7f",
    "lat": 54.7028044,
    "lon": 25.2882429,
    "display_name": "Baltic Petroleum, 59, Rinktinės g., Tuskulėnai, Žirmūnų seniūnija, Vilnius, Vilniaus miesto savivaldybė, Vilniaus apskritis, 09207, Lietuva",
    "query": "Rinktinės g. 59, Vilnius, Lietuva",
    "geocode_updated_at": "2026-04-09T06:36:40.251Z",
    "status": "resolved"
  },
  {
    "station_id": "0ed1fd1bd6469665",
    "lat": 54.408962,
    "lon": 24.0051873,
    "display_name": "Neste „Ūdrijos“, 31, Ūdrijos g., Putinai, Alytus, Alytaus miesto savivaldybė, Alytaus apskritis, 62411, Lietuva",
    "query": "Ūdrijos g. 31, Alytus, Lietuva",
    "geocode_updated_at": "2026-04-09T06:41:06.952Z",
    "status": "resolved"
  },
  {
    "station_id": "0ed659cfde4088bc",
    "lat": 54.6476043,
    "lon": 23.0292462,
    "display_name": "Viada, 105, Vytauto g., Vilkaviškis, Vilkaviškio miesto seniūnija, Vilkaviškio rajono savivaldybė, Marijampolės apskritis, 70118, Lietuva",
    "query": "Vytauto g. 105, Vilkaviškis, Lietuva",
    "geocode_updated_at": "2026-04-09T06:46:44.381Z",
    "status": "resolved"
  },
  {
    "station_id": "0ef08b459a1def5f",
    "lat": null,
    "lon": null,
    "display_name": null,
    "query": "Marijampolės pl. 20, Kaunas, Lietuva",
    "geocode_updated_at": null,
    "status": "unresolved"
  },
  {
    "station_id": "0f856909c94061ef",
    "lat": null,
    "lon": null,
    "display_name": null,
    "query": "Dvaro g. 3, Košių II k., Lietuva",
    "geocode_updated_at": null,
    "status": "unresolved"
  },
  {
    "station_id": "0f963735c9b4e05b",
    "lat": null,
    "lon": null,
    "display_name": null,
    "query": "Zujūnai Buivydiškių g. 1A, Lietuva",
    "geocode_updated_at": null,
    "status": "unresolved"
  },
  {
    "station_id": "0fdc387c6186a8ba",
    "lat": null,
    "lon": null,
    "display_name": null,
    "query": "Prienų g. 22, Ilgakiemio k., Lietuva",
    "geocode_updated_at": null,
    "status": "unresolved"
  },
  {
    "station_id": "10b9c1b134d20a77",
    "lat": 55.6817397,
    "lon": 21.1851383,
    "display_name": "Viada, 52, Šilutės pl., Naujadvaris, Gedminai, Klaipėda, Klaipėdos miesto savivaldybė, Klaipėdos apskritis, 94181, Lietuva",
    "query": "Šilutės pl. 52, Klaipėda, Lietuva",
    "geocode_updated_at": "2026-04-09T06:45:18.367Z",
    "status": "resolved"
  },
  {
    "station_id": "10d5bf433cf3b1d1",
    "lat": 55.2582123,
    "lon": 22.2945669,
    "display_name": "Susyskintos Dujos, 49, Dariaus ir Girėno g., Senamiestis, Tauragė, Tauragės miesto seniūnija, Tauragės rajono savivaldybė, Tauragės apskritis, 72221, Lietuva",
    "query": "Dariaus ir Girėno g.49, Tauragė, Lietuva",
    "geocode_updated_at": "2026-04-09T06:40:44.457Z",
    "status": "resolved"
  },
  {
    "station_id": "10ee607690b1c0ab",
    "lat": 55.7481994,
    "lon": 24.3908149,
    "display_name": "Orlen, 115, Senamiesčio g., Panevėžys, Panevėžio miesto savivaldybė, Panevėžio apskritis, 35114, Lietuva",
    "query": "Senamiesčio g. 115, Panevėžys, Lietuva",
    "geocode_updated_at": "2026-04-09T06:43:32.717Z",
    "status": "resolved"
  },
  {
    "station_id": "10f2ba6ffb4cfd6a",
    "lat": null,
    "lon": null,
    "display_name": null,
    "query": "Plento g. 1, Kuršukų k., Lietuva",
    "geocode_updated_at": null,
    "status": "unresolved"
  },
  {
    "station_id": "1142190c488e9091",
    "lat": null,
    "lon": null,
    "display_name": null,
    "query": "Šilalės g. 105, Papušynės k, Lietuva",
    "geocode_updated_at": null,
    "status": "unresolved"
  },
  {
    "station_id": "120074a806b462b9",
    "lat": 54.9453642,
    "lon": 23.0457682,
    "display_name": "Baltic Petroleum, 1, Sodų g., Šakiai, Šakių seniūnija, Šakių rajono savivaldybė, Marijampolės apskritis, 71136, Lietuva",
    "query": "Sodų g. 1, Šakiai, Lietuva",
    "geocode_updated_at": "2026-04-09T06:36:09.137Z",
    "status": "resolved"
  },
  {
    "station_id": "126769cf085068db",
    "lat": null,
    "lon": null,
    "display_name": null,
    "query": "Babtai Vandžiogalos g. 3, Lietuva",
    "geocode_updated_at": null,
    "status": "unresolved"
  },
  {
    "station_id": "127cc14d4e3d6d2b",
    "lat": 54.9339187,
    "lon": 23.917586,
    "display_name": "Jozita, 51, Jonavos g., Eiguliai, Eigulių seniūnija, Kaunas, Kauno miesto savivaldybė, Kauno apskritis, 44131, Lietuva",
    "query": "Jonavos g. 51, Kaunas, Lietuva",
    "geocode_updated_at": "2026-04-09T06:40:01.986Z",
    "status": "resolved"
  },
  {
    "station_id": "13576056051d6453",
    "lat": 54.6684024,
    "lon": 25.1116773,
    "display_name": "EMSI Grigiškės, 2, Spyglių g., Neravai, Grigiškių seniūnija, Vilnius, Vilniaus miesto savivaldybė, Vilniaus apskritis, 27129, Lietuva",
    "query": "Spyglių g. 2, Vilnius, Lietuva",
    "geocode_updated_at": "2026-04-09T12:26:31.516Z",
    "status": "resolved"
  },
  {
    "station_id": "135775799fb76544",
    "lat": 55.9933503,
    "lon": 22.2401557,
    "display_name": "2A, Pramonės g., Senamiestis, Telšiai, Telšių miesto seniūnija, Telšių rajono savivaldybė, Telšių apskritis, 87102, Lietuva",
    "query": "Pramonės g. 2A, Telšiai, Lietuva",
    "geocode_updated_at": "2026-04-09T06:46:31.832Z",
    "status": "resolved"
  },
  {
    "station_id": "137e3fe4e1adc316",
    "lat": 54.9255312,
    "lon": 23.8917929,
    "display_name": "Neste, 26, Žemaičių pl., Milikoniai, Šilainių seniūnija, Kaunas, Kauno miesto savivaldybė, Kauno apskritis, 48256, Lietuva",
    "query": "Žemaičių pl. 26, Kaunas, Lietuva",
    "geocode_updated_at": "2026-04-09T06:41:33.438Z",
    "status": "resolved"
  },
  {
    "station_id": "143c2457c46785b6",
    "lat": 55.9771223,
    "lon": 22.2651123,
    "display_name": "Circle K „Telšiai“, 70, Luokės g., Lygumai, Telšiai, Telšių miesto seniūnija, Telšių rajono savivaldybė, Telšių apskritis, 87128, Lietuva",
    "query": "Luokės g. 70, Telšiai, Lietuva",
    "geocode_updated_at": "2026-04-09T06:38:23.732Z",
    "status": "resolved"
  },
  {
    "station_id": "15542ee221fdaf08",
    "lat": 54.7094735,
    "lon": 25.1898838,
    "display_name": "Dockers Pub Pilaitė, 27, Pilaitės pr., Pilaitė, Pilaitės seniūnija, Vilnius, Vilniaus miesto savivaldybė, Vilniaus apskritis, 06204, Lietuva",
    "query": "Pilaitės pr. 27, Vilnius, Lietuva",
    "geocode_updated_at": "2026-04-09T06:42:50.423Z",
    "status": "resolved"
  },
  {
    "station_id": "16420cdeeb4e0c1b",
    "lat": 54.6581148,
    "lon": 23.0332434,
    "display_name": "EMSI, 38, S. Nėries g., Vilkaviškis, Vilkaviškio miesto seniūnija, Vilkaviškio rajono savivaldybė, Marijampolės apskritis, 70147, Lietuva",
    "query": "S.Nėries g.38, Vilkaviškis, Lietuva",
    "geocode_updated_at": "2026-04-09T12:26:15.789Z",
    "status": "resolved"
  },
  {
    "station_id": "16646fa19724a9ae",
    "lat": null,
    "lon": null,
    "display_name": null,
    "query": "Ruoščių k. 1, Lietuva",
    "geocode_updated_at": null,
    "status": "unresolved"
  },
  {
    "station_id": "1669c6b0d4ded1a4",
    "lat": null,
    "lon": null,
    "display_name": null,
    "query": "Puttvinskio g. 29, Kelmė, Lietuva",
    "geocode_updated_at": null,
    "status": "unresolved"
  },
  {
    "station_id": "16c414a406f8612e",
    "lat": 54.9361261,
    "lon": 23.895943,
    "display_name": "Jozita, 13A, Kuršių g., Šilainiai, Šilainių seniūnija, Kaunas, Kauno miesto savivaldybė, Kauno apskritis, 48109, Lietuva",
    "query": "Kuršių 13A, Kaunas, Lietuva",
    "geocode_updated_at": "2026-04-09T06:40:03.369Z",
    "status": "resolved"
  },
  {
    "station_id": "171c195894b6772e",
    "lat": 54.7234552,
    "lon": 25.2329482,
    "display_name": "EMSI, 80B, Laisvės pr., Pašilaičiai, Pašilaičių seniūnija, Vilnius, Vilniaus miesto savivaldybė, Vilniaus apskritis, 06124, Lietuva",
    "query": "Laisvės pr. 80B, Vilnius, Lietuva",
    "geocode_updated_at": "2026-04-09T12:26:24.418Z",
    "status": "resolved"
  },
  {
    "station_id": "174e64f69df59444",
    "lat": null,
    "lon": null,
    "display_name": null,
    "query": "Kikonių g. 10, Aleksandrijos k., Lietuva",
    "geocode_updated_at": null,
    "status": "unresolved"
  },
  {
    "station_id": "17760e58440e1711",
    "lat": 54.9252968,
    "lon": 23.8904637,
    "display_name": "Circle K „Šilainiai“, 19, Žemaičių pl., Milikoniai, Šilainių seniūnija, Kaunas, Kauno miesto savivaldybė, Kauno apskritis, 48255, Lietuva",
    "query": "Žemaičių pl. 19, Kaunas, Lietuva",
    "geocode_updated_at": "2026-04-09T06:37:33.333Z",
    "status": "resolved"
  },
  {
    "station_id": "179c6366afb6814e",
    "lat": 54.7369256,
    "lon": 25.2321131,
    "display_name": "Orlen, 319, Ukmergės g., Fabijoniškės, Fabijoniškių seniūnija, Vilnius, Vilniaus miesto savivaldybė, Vilniaus apskritis, 06305, Lietuva",
    "query": "Ukmergės g. 319, Vilnius, Lietuva",
    "geocode_updated_at": "2026-04-09T06:43:46.588Z",
    "status": "resolved"
  },
  {
    "station_id": "1802bfffac2720cf",
    "lat": 55.2653157,
    "lon": 22.3088337,
    "display_name": "Neste, 130A, Dariaus ir Girėno g., Beržės, Tauragė, Tauragės miesto seniūnija, Tauragės rajono savivaldybė, Tauragės apskritis, 72194, Lietuva",
    "query": "Dariaus ir Girėno g. 130A, Tauragė, Lietuva",
    "geocode_updated_at": "2026-04-09T06:42:20.503Z",
    "status": "resolved"
  },
  {
    "station_id": "18af7c44bf326d27",
    "lat": null,
    "lon": null,
    "display_name": null,
    "query": "Panevėžio g. 9, Kupiškis, Lietuva",
    "geocode_updated_at": null,
    "status": "unresolved"
  },
  {
    "station_id": "19c1ed1a140ae5f9",
    "lat": null,
    "lon": null,
    "display_name": null,
    "query": "Pageležių km., Lietuva",
    "geocode_updated_at": null,
    "status": "unresolved"
  },
  {
    "station_id": "1a20f0b20a41b6f0",
    "lat": 55.2865804,
    "lon": 23.9721881,
    "display_name": "Circle K „Kėdainiai“, 40A, J. Basanavičiaus g., Senamiestis, Kėdainiai, Kėdainių miesto seniūnija, Kėdainių rajono savivaldybė, Kauno apskritis, 57295, Lietuva",
    "query": "J. Basanavičiaus g. 40a, Kėdainiai, Lietuva",
    "geocode_updated_at": "2026-04-09T06:37:36.183Z",
    "status": "resolved"
  },
  {
    "station_id": "1a3179a49fcc85d0",
    "lat": 54.8857026,
    "lon": 23.9119704,
    "display_name": "Baltic Petroleum, 132, H. ir O. Minkovskių g., Aleksotas, Aleksoto seniūnija, Kaunas, Kauno miesto savivaldybė, Kauno apskritis, 46245, Lietuva",
    "query": "Minkovskių g. 132, Kaunas, Lietuva",
    "geocode_updated_at": "2026-04-09T06:35:08.934Z",
    "status": "resolved"
  },
  {
    "station_id": "1a5358a4f9caaa03",
    "lat": 54.7891686,
    "lon": 24.6760563,
    "display_name": "Circle K „Elektrėnai“, 1F, Sabališkių g., Elektrėnai, Elektrėnų seniūnija, Elektrėnų savivaldybė, Vilniaus apskritis, 26141, Lietuva",
    "query": "Sabališkių g. 1F, Elektrėnai, Lietuva",
    "geocode_updated_at": "2026-04-09T06:37:01.961Z",
    "status": "resolved"
  },
  {
    "station_id": "1a7f465f18d3f2cf",
    "lat": 56.2019312,
    "lon": 24.7377964,
    "display_name": "Viada, 1B, Pasvalio g., Naujamiestis, Biržai, Biržų miesto seniūnija, Biržų rajono savivaldybė, Panevėžio apskritis, 41132, Lietuva",
    "query": "Pasvalio g. 1B, Biržai, Lietuva",
    "geocode_updated_at": "2026-04-09T06:44:22.070Z",
    "status": "resolved"
  },
  {
    "station_id": "1a84cf79df0cc234",
    "lat": 55.7090681,
    "lon": 24.3733489,
    "display_name": "Viada, 186G, Ramygalos g., Panevėžys, Panevėžio miesto savivaldybė, Panevėžio apskritis, 36255, Lietuva",
    "query": "Ramygalos g. 186G, Panevėžys, Lietuva",
    "geocode_updated_at": "2026-04-09T06:45:44.631Z",
    "status": "resolved"
  },
  {
    "station_id": "1b583172780083eb",
    "lat": null,
    "lon": null,
    "display_name": null,
    "query": "Vakarinis aplinkkelis 18, Kaunas, Lietuva",
    "geocode_updated_at": null,
    "status": "unresolved"
  },
  {
    "station_id": "1b6119a805a6a701",
    "lat": 54.7398539,
    "lon": 25.2761745,
    "display_name": "EMSI, 2, Jeruzalės g., Santariškės, Verkių seniūnija, Vilnius, Vilniaus miesto savivaldybė, Vilniaus apskritis, 08414, Lietuva",
    "query": "Jeruzalės 2, Vilnius, Lietuva",
    "geocode_updated_at": "2026-04-09T12:26:19.012Z",
    "status": "resolved"
  },
  {
    "station_id": "1b909d5a7c082307",
    "lat": null,
    "lon": null,
    "display_name": null,
    "query": "Kuosiškių k. 4, Lietuva",
    "geocode_updated_at": null,
    "status": "unresolved"
  },
  {
    "station_id": "1cbdef748050c74d",
    "lat": null,
    "lon": null,
    "display_name": null,
    "query": "Vilnius, Grigiškės, Kovo 11-osios g. 75, Lietuva",
    "geocode_updated_at": null,
    "status": "unresolved"
  },
  {
    "station_id": "1d52d3c02d002c63",
    "lat": null,
    "lon": null,
    "display_name": null,
    "query": "Utenos g. 16, Gojaus k., Lietuva",
    "geocode_updated_at": null,
    "status": "unresolved"
  },
  {
    "station_id": "1dfe4c0d7ddb8682",
    "lat": 54.5651422,
    "lon": 23.3685518,
    "display_name": "EMSI, 6B, Stoties g., Draugystė, Marijampolė, Marijampolės savivaldybė, Marijampolės apskritis, 68233, Lietuva",
    "query": "Stoties g. 6B, Marijampolė, Lietuva",
    "geocode_updated_at": "2026-04-09T12:25:52.890Z",
    "status": "resolved"
  },
  {
    "station_id": "1e2f696e55c5e7d2",
    "lat": null,
    "lon": null,
    "display_name": null,
    "query": "Vakarų g. 14, Kumpių k., Lietuva",
    "geocode_updated_at": null,
    "status": "unresolved"
  },
  {
    "station_id": "1e8b23a8afbda341",
    "lat": null,
    "lon": null,
    "display_name": null,
    "query": "Skraičionių g. 1, Skraičionių k., Lietuva",
    "geocode_updated_at": null,
    "status": "unresolved"
  },
  {
    "station_id": "1eb29eb972e3911d",
    "lat": null,
    "lon": null,
    "display_name": null,
    "query": "Alytaus k., Lietuva",
    "geocode_updated_at": null,
    "status": "unresolved"
  },
  {
    "station_id": "1f5daa43fe4a3915",
    "lat": 54.7845187,
    "lon": 24.6542452,
    "display_name": "Viada, 6, Elektrinės g., Elektrėnai, Elektrėnų seniūnija, Elektrėnų savivaldybė, Vilniaus apskritis, 26106, Lietuva",
    "query": "Elektrinės g. 6, Elektrėnai, Lietuva",
    "geocode_updated_at": "2026-04-09T06:44:23.411Z",
    "status": "resolved"
  },
  {
    "station_id": "1fe787269dad9a0a",
    "lat": 54.7137984,
    "lon": 25.2770784,
    "display_name": "Viada, 12, Ozo g., Verkių seniūnija, Vilnius, Vilniaus miesto savivaldybė, Vilniaus apskritis, 08200, Lietuva",
    "query": "Ozo g. 12, Vilnius, Lietuva",
    "geocode_updated_at": "2026-04-09T06:46:59.960Z",
    "status": "resolved"
  },
  {
    "station_id": "1fedfba376779033",
    "lat": 55.7321931,
    "lon": 21.3761937,
    "display_name": "Viada, 65, Vilniaus pl., Gargždai, Dauparų-Kvietinių seniūnija, Klaipėdos rajono savivaldybė, Klaipėdos apskritis, 96105, Lietuva",
    "query": "Vilniaus pl. 65, Gargždai, Lietuva",
    "geocode_updated_at": "2026-04-09T06:45:22.167Z",
    "status": "resolved"
  },
  {
    "station_id": "202eabe54f1fbf17",
    "lat": 55.7861028,
    "lon": 22.6709028,
    "display_name": "Kvistija, 52, Žemaitės g., Užventis, Užvenčio seniūnija, Kelmės rajono savivaldybė, Šiaulių apskritis, 86343, Lietuva",
    "query": "Žemaitės g. 52, Užventis, Lietuva",
    "geocode_updated_at": "2026-04-09T06:39:17.984Z",
    "status": "resolved"
  },
  {
    "station_id": "20bc4a03cfc39092",
    "lat": null,
    "lon": null,
    "display_name": null,
    "query": "Tvirtovės alėja 33a, Kaunas, Lietuva",
    "geocode_updated_at": null,
    "status": "unresolved"
  },
  {
    "station_id": "20f9b1edeb7323f5",
    "lat": 56.1948403,
    "lon": 24.7721388,
    "display_name": "Circle K „Biržai“, 93, Kilučių g., Senamiestis, Biržai, Biržų miesto seniūnija, Biržų rajono savivaldybė, Panevėžio apskritis, 41156, Lietuva",
    "query": "Kilučių g. 93, Biržai, Lietuva",
    "geocode_updated_at": "2026-04-09T06:36:58.761Z",
    "status": "resolved"
  },
  {
    "station_id": "219273de13cbd99c",
    "lat": 55.9167296,
    "lon": 23.2469009,
    "display_name": "4, Nuklono g., Naujieji Dainai, Gytariai, Šiauliai, Šiaulių miesto savivaldybė, Šiaulių apskritis, 78365, Lietuva",
    "query": "Nuklono g. 4, Šiauliai, Lietuva",
    "geocode_updated_at": "2026-04-08T15:54:39.692Z",
    "status": "resolved"
  },
  {
    "station_id": "23cf4e45156e4543",
    "lat": null,
    "lon": null,
    "display_name": null,
    "query": "Akmenės I kaimas Plento g. 1, Lietuva",
    "geocode_updated_at": null,
    "status": "unresolved"
  },
  {
    "station_id": "2499661767e45a30",
    "lat": null,
    "lon": null,
    "display_name": null,
    "query": "Kušliškių km. Suvalkijos g. 15, Lietuva",
    "geocode_updated_at": null,
    "status": "unresolved"
  },
  {
    "station_id": "24be6bab3940b105",
    "lat": null,
    "lon": null,
    "display_name": null,
    "query": "Tilžės g. 21, Saugų k., Lietuva",
    "geocode_updated_at": null,
    "status": "unresolved"
  },
  {
    "station_id": "24e234c1896ffe08",
    "lat": 55.0458526,
    "lon": 24.9427122,
    "display_name": "Viada, 4, Plento g., Širvintos, Širvintų miesto seniūnija, Širvintų rajono savivaldybė, Vilniaus apskritis, 19132, Lietuva",
    "query": "Plento g. 4, Širvintos, Lietuva",
    "geocode_updated_at": "2026-04-09T06:46:21.135Z",
    "status": "resolved"
  },
  {
    "station_id": "24e3dc2eece562ff",
    "lat": 55.3389521,
    "lon": 26.1455754,
    "display_name": "28A, Turistų g., Ignalina, Ignalinos miesto seniūnija, Ignalinos rajono savivaldybė, Utenos apskritis, 30100, Lietuva",
    "query": "Turistų g. 28A, Ignalina, Lietuva",
    "geocode_updated_at": "2026-04-09T06:44:26.137Z",
    "status": "resolved"
  },
  {
    "station_id": "25029d50e2f38c40",
    "lat": 55.4957333,
    "lon": 25.5839148,
    "display_name": "Maxima X, 3, J. Basanavičiaus g., Naujamiestis, Utena, Utenos miesto seniūnija, Utenos rajono savivaldybė, Utenos apskritis, 28134, Lietuva",
    "query": "J. Basanavičiaus g. 3, Utena, Lietuva",
    "geocode_updated_at": "2026-04-09T06:38:29.806Z",
    "status": "resolved"
  },
  {
    "station_id": "255433be82b9ac17",
    "lat": 54.8643505,
    "lon": 24.436539,
    "display_name": "4A, Paukštininkų g., Kaišiadorys, Kaišiadorių miesto seniūnija, Kaišiadorių rajono savivaldybė, Kauno apskritis, 56163, Lietuva",
    "query": "Paukštininkų g.4a, Kaišiadorys, Lietuva",
    "geocode_updated_at": "2026-04-09T12:25:16.164Z",
    "status": "resolved"
  },
  {
    "station_id": "255e19bc24d6f3ba",
    "lat": 54.6566534,
    "lon": 25.2920381,
    "display_name": "Neste „Žirnių“, 17, Žirnių g., Naujininkai, Naujininkų seniūnija, Vilnius, Vilniaus miesto savivaldybė, Vilniaus apskritis, 02117, Lietuva",
    "query": "Žirnių g. 17, Vilnius, Lietuva",
    "geocode_updated_at": "2026-04-09T06:43:05.034Z",
    "status": "resolved"
  },
  {
    "station_id": "261c1bb46d448322",
    "lat": null,
    "lon": null,
    "display_name": null,
    "query": "Kaunas Garažų g. 20, Lietuva",
    "geocode_updated_at": null,
    "status": "unresolved"
  },
  {
    "station_id": "261c5988a8fbcd1e",
    "lat": 54.7119036,
    "lon": 25.293073,
    "display_name": "Neste, 22, P. Lukšio g., Šiaurės miestelis, Žirmūnų seniūnija, Vilnius, Vilniaus miesto savivaldybė, Vilniaus apskritis, 08222, Lietuva",
    "query": "P. Lukšio g. 22, Vilnius, Lietuva",
    "geocode_updated_at": "2026-04-09T06:42:45.524Z",
    "status": "resolved"
  },
  {
    "station_id": "26535e26b6de3ad5",
    "lat": null,
    "lon": null,
    "display_name": null,
    "query": "Juodalaukių k. 2, Lietuva",
    "geocode_updated_at": null,
    "status": "unresolved"
  },
  {
    "station_id": "267edfc09828e6dd",
    "lat": null,
    "lon": null,
    "display_name": null,
    "query": "Ežero g. 7, Kurėnų k., Lietuva",
    "geocode_updated_at": null,
    "status": "unresolved"
  },
  {
    "station_id": "26eb1e1a0e833af0",
    "lat": null,
    "lon": null,
    "display_name": null,
    "query": "Kantališkių k., Lietuva",
    "geocode_updated_at": null,
    "status": "unresolved"
  },
  {
    "station_id": "26efe4b50b1af40a",
    "lat": 54.6942218,
    "lon": 25.2634259,
    "display_name": "Circle K „Šalia Parlamento“, 13, A. Goštauto g., Lukiškės, Naujamiesčio seniūnija, Vilnius, Vilniaus miesto savivaldybė, Vilniaus apskritis, 01108, Lietuva",
    "query": "A. Goštauto g. 13, Vilnius, Lietuva",
    "geocode_updated_at": "2026-04-09T06:38:33.954Z",
    "status": "resolved"
  },
  {
    "station_id": "27826acc6d061fcd",
    "lat": 54.7203664,
    "lon": 25.2943022,
    "display_name": "52, Verkių g., Žirmūnai, Žirmūnų seniūnija, Vilnius, Vilniaus miesto savivaldybė, Vilniaus apskritis, 09109, Lietuva",
    "query": "Verkių g. 52, Vilnius, Lietuva",
    "geocode_updated_at": "2026-04-09T06:47:07.719Z",
    "status": "resolved"
  },
  {
    "station_id": "28f128077307cf66",
    "lat": null,
    "lon": null,
    "display_name": null,
    "query": "Vilniaus g. 29B, Kretinga, Lietuva",
    "geocode_updated_at": null,
    "status": "unresolved"
  },
  {
    "station_id": "28f7daaaa8f98935",
    "lat": null,
    "lon": null,
    "display_name": null,
    "query": "Liepų g. 4, Škilinpamūšio k., Lietuva",
    "geocode_updated_at": null,
    "status": "unresolved"
  },
  {
    "station_id": "2966e8042adc35fb",
    "lat": 55.714597,
    "lon": 24.3351417,
    "display_name": "31, Navadolio g., Panevėžys, Panevėžio miesto savivaldybė, Panevėžio apskritis, 36252, Lietuva",
    "query": "Navadolio g. 31, Panevėžys, Lietuva",
    "geocode_updated_at": "2026-04-09T06:45:40.723Z",
    "status": "resolved"
  },
  {
    "station_id": "296701713273c4d9",
    "lat": 54.6212846,
    "lon": 25.2429403,
    "display_name": "Neste „Eišiškių“, 82, Eišiškių pl., Naujininkų seniūnija, Vilnius, Vilniaus miesto savivaldybė, Vilniaus apskritis, 02186, Lietuva",
    "query": "Eišiškių pl. 82, Vilnius, Lietuva",
    "geocode_updated_at": "2026-04-09T06:42:30.645Z",
    "status": "resolved"
  },
  {
    "station_id": "29cc8aaab17b545a",
    "lat": 55.9543343,
    "lon": 23.2559893,
    "display_name": "Jozita, 2B, Plento g., Toliočiai, Šiaulių kaimiškoji seniūnija, Šiaulių rajono savivaldybė, Šiaulių apskritis, 76322, Lietuva",
    "query": "Plento g. 2B, Toliočiai, Lietuva",
    "geocode_updated_at": "2026-04-09T06:40:27.764Z",
    "status": "resolved"
  },
  {
    "station_id": "2a023df5777b41f4",
    "lat": null,
    "lon": null,
    "display_name": null,
    "query": "Vyturio g. 2, Gedimino k., Lietuva",
    "geocode_updated_at": null,
    "status": "unresolved"
  },
  {
    "station_id": "2a2c2d354fa47e9d",
    "lat": 54.9038368,
    "lon": 23.835313,
    "display_name": "Viada, 132, Marvelės g., Marva, Aleksoto seniūnija, Kaunas, Kauno miesto savivaldybė, Kauno apskritis, 46230, Lietuva",
    "query": "Marvelės g. 132, Kaunas, Lietuva",
    "geocode_updated_at": "2026-04-09T11:33:38.750Z",
    "status": "resolved"
  },
  {
    "station_id": "2a5db21202984509",
    "lat": null,
    "lon": null,
    "display_name": null,
    "query": "Marijampolės g. 1, Pagirių k., Lietuva",
    "geocode_updated_at": null,
    "status": "unresolved"
  },
  {
    "station_id": "2a6377c2e7513736",
    "lat": 55.7317398,
    "lon": 24.303173,
    "display_name": "Orlen, 162D, Klaipėdos g., Pagojys, Panevėžys, Panevėžio miesto savivaldybė, Panevėžio apskritis, 37372, Lietuva",
    "query": "Klaipėdos g. 162 D, Panevėžys, Lietuva",
    "geocode_updated_at": "2026-04-09T06:43:30.860Z",
    "status": "resolved"
  },
  {
    "station_id": "2ae1ec8497f8c6b3",
    "lat": 54.6771369,
    "lon": 25.2560022,
    "display_name": "Švaros broliai, 2, Kedrų g., Naujamiestis, Naujamiesčio seniūnija, Vilnius, Vilniaus miesto savivaldybė, Vilniaus apskritis, 03159, Lietuva",
    "query": "Kedrų g. 2, Vilnius, Lietuva",
    "geocode_updated_at": "2026-04-09T06:42:43.012Z",
    "status": "resolved"
  },
  {
    "station_id": "2b428581a0bd3968",
    "lat": 54.9260285,
    "lon": 24.0605624,
    "display_name": "50B, Ateities pl., Kaunas, Karmėlavos seniūnija, Kauno rajono savivaldybė, Kauno apskritis, 52106, Lietuva",
    "query": "Ateities pl. 50B, Kaunas, Lietuva",
    "geocode_updated_at": "2026-04-09T06:41:13.669Z",
    "status": "resolved"
  },
  {
    "station_id": "2bd6c0cbb2897dcd",
    "lat": 54.9236968,
    "lon": 24.0690468,
    "display_name": "171, Palemono g., Palemonas, Petrašiūnų seniūnija, Kaunas, Kauno miesto savivaldybė, Kauno apskritis, 52107, Lietuva",
    "query": "Palemono g. 171, Kaunas, Lietuva",
    "geocode_updated_at": "2026-04-09T11:32:27.082Z",
    "status": "resolved"
  },
  {
    "station_id": "2c86a958fd17c2a3",
    "lat": 56.2076706,
    "lon": 24.7708027,
    "display_name": "EMSI, 2A, Jaunimo g., Astravas, Biržai, Biržų miesto seniūnija, Biržų rajono savivaldybė, Panevėžio apskritis, 41168, Lietuva",
    "query": "Jaunimo g.2a, Biržai, Lietuva",
    "geocode_updated_at": "2026-04-09T11:34:24.390Z",
    "status": "resolved"
  },
  {
    "station_id": "2c9fe43c9d1fb7d3",
    "lat": 55.7431736,
    "lon": 24.3424941,
    "display_name": "Deliuvis, 2, S. Kerbedžio g., Senamiestis, Panevėžys, Panevėžio miesto savivaldybė, Panevėžio apskritis, 35102, Lietuva",
    "query": "S.Kerbedžio 2, Panevėžys, Lietuva",
    "geocode_updated_at": "2026-04-09T06:39:07.511Z",
    "status": "resolved"
  },
  {
    "station_id": "2d1b12fc37b5ea0f",
    "lat": null,
    "lon": null,
    "display_name": null,
    "query": "Velžių km .Radviliškio plentas 2, Lietuva",
    "geocode_updated_at": null,
    "status": "unresolved"
  },
  {
    "station_id": "2dcd87a670b7c94c",
    "lat": null,
    "lon": null,
    "display_name": null,
    "query": "Baltijos g. 1, Mastaičių k., Lietuva",
    "geocode_updated_at": null,
    "status": "unresolved"
  },
  {
    "station_id": "2e268714627518e3",
    "lat": 54.6859077,
    "lon": 25.4305922,
    "display_name": "Jozita, 64, Parko g., Naujoji Vilnia, Naujosios Vilnios seniūnija, Vilnius, Vilniaus miesto savivaldybė, Vilniaus apskritis, 11224, Lietuva",
    "query": "Parko g. 64, Vilnius, Lietuva",
    "geocode_updated_at": "2026-04-09T06:40:35.779Z",
    "status": "resolved"
  },
  {
    "station_id": "2e49278504f8666a",
    "lat": 54.9399034,
    "lon": 23.8946455,
    "display_name": "Linos artelė, 32, Islandijos pl., Vytėnai, Šilainių seniūnija, Kaunas, Kauno miesto savivaldybė, Kauno apskritis, 47446, Lietuva",
    "query": "Islandijos pl. 32, Kaunas, Lietuva",
    "geocode_updated_at": "2026-04-09T06:37:09.727Z",
    "status": "resolved"
  },
  {
    "station_id": "30a600e09d0d3702",
    "lat": 54.880898,
    "lon": 23.8942251,
    "display_name": "Circle K „Aleksotas“, 49A, Veiverių g., Aleksotas, Aleksoto seniūnija, Kaunas, Kauno miesto savivaldybė, Kauno apskritis, 46283, Lietuva",
    "query": "Veiverių g. 49A, Kaunas, Lietuva",
    "geocode_updated_at": "2026-04-09T06:37:31.477Z",
    "status": "resolved"
  },
  {
    "station_id": "30ae6e57d85273a4",
    "lat": null,
    "lon": null,
    "display_name": null,
    "query": "Mūšos g. 19, Aukštikalnio k., Lietuva",
    "geocode_updated_at": null,
    "status": "unresolved"
  },
  {
    "station_id": "317a1913e4ba575e",
    "lat": 55.661071,
    "lon": 21.1762437,
    "display_name": "Emsi, 124, Taikos pr., Smeltalė, Smeltė, Klaipėda, Klaipėdos miesto savivaldybė, Klaipėdos apskritis, 94285, Lietuva",
    "query": "Taikos pr.124, Klaipėda, Lietuva",
    "geocode_updated_at": "2026-04-09T12:25:42.743Z",
    "status": "resolved"
  },
  {
    "station_id": "31ab7158c0a39dda",
    "lat": 55.5848527,
    "lon": 24.8784603,
    "display_name": "Link geležinkelio, 32, Vilniaus g., Troškūnai, Troškūnų seniūnija, Anykščių rajono savivaldybė, Utenos apskritis, 29306, Lietuva",
    "query": "Vilniaus g. 32, Troškūnai, Lietuva",
    "geocode_updated_at": "2026-04-09T06:40:59.022Z",
    "status": "resolved"
  },
  {
    "station_id": "31b70f3f19ddc6f5",
    "lat": 55.692392,
    "lon": 21.1537884,
    "display_name": "Circle K 1-2-3 „Taika“, 61B, Taikos pr., Arena, Rumpiškė, Klaipėda, Klaipėdos miesto savivaldybė, Klaipėdos apskritis, 91182, Lietuva",
    "query": "Taikos pr. 61B, Klaipėda, Lietuva",
    "geocode_updated_at": "2026-04-09T06:37:44.673Z",
    "status": "resolved"
  },
  {
    "station_id": "31cfb2c946204f9f",
    "lat": null,
    "lon": null,
    "display_name": null,
    "query": "Minijos g. 152A, Klaipėda, Lietuva",
    "geocode_updated_at": null,
    "status": "unresolved"
  },
  {
    "station_id": "3226225a7dc37241",
    "lat": 55.7020689,
    "lon": 21.1380345,
    "display_name": "Circle K „Pilies g.“, 2, Sausio 15-osios g., Baltikalnė, Špichuto dvaras, Senamiestis, Klaipėda, Klaipėdos miesto savivaldybė, Klaipėdos apskritis, 91200, Lietuva",
    "query": "Sausio 15-osios g. 2, Klaipėda, Lietuva",
    "geocode_updated_at": "2026-04-09T06:37:41.410Z",
    "status": "resolved"
  },
  {
    "station_id": "326493ad9f0df2e4",
    "lat": 55.9201684,
    "lon": 23.4259981,
    "display_name": "Alauša, 2B, Plento g., Vėgėliai, Kairiai, Kairių seniūnija, Šiaulių rajono savivaldybė, Šiaulių apskritis, 80112, Lietuva",
    "query": "Plento g. 2B, Kairiai, Lietuva",
    "geocode_updated_at": "2026-04-09T11:32:38.443Z",
    "status": "resolved"
  },
  {
    "station_id": "32e537df757d21a5",
    "lat": 54.9012375,
    "lon": 23.8544016,
    "display_name": "Skulas, 106D, Marvelės g., Marvelė, Aleksoto seniūnija, Kaunas, Kauno miesto savivaldybė, Kauno apskritis, 46205, Lietuva",
    "query": "Marvelės g. 106 D, Kaunas, Lietuva",
    "geocode_updated_at": "2026-04-09T06:43:58.523Z",
    "status": "resolved"
  },
  {
    "station_id": "336e77e4c8f68aa0",
    "lat": null,
    "lon": null,
    "display_name": null,
    "query": "Tilžės pl. 36, Taurų k., Lietuva",
    "geocode_updated_at": null,
    "status": "unresolved"
  },
  {
    "station_id": "33d549f3c4390606",
    "lat": 54.7208665,
    "lon": 25.284772,
    "display_name": "Alauša, 204G, Kalvarijų g., Ozas, Verkių seniūnija, Vilnius, Vilniaus miesto savivaldybė, Vilniaus apskritis, 08313, Lietuva",
    "query": "Kalvarijų g. 204G, Vilnius, Lietuva",
    "geocode_updated_at": "2026-04-09T11:32:47.718Z",
    "status": "resolved"
  },
  {
    "station_id": "34f6bb9bcd2df41e",
    "lat": null,
    "lon": null,
    "display_name": null,
    "query": "Mokyklos g. 23, Švenčionys, Lietuva",
    "geocode_updated_at": null,
    "status": "unresolved"
  },
  {
    "station_id": "3523add88211eeed",
    "lat": 54.5543671,
    "lon": 23.3623615,
    "display_name": "Viada, 5, Geležinkelio g., Draugystė, Marijampolė, Marijampolės savivaldybė, Marijampolės apskritis, 68304, Lietuva",
    "query": "Geležinkelio g. 5, Marijampolė, Lietuva",
    "geocode_updated_at": "2026-04-09T06:45:31.478Z",
    "status": "resolved"
  },
  {
    "station_id": "352bb1f5854645e3",
    "lat": 55.6566409,
    "lon": 21.1823952,
    "display_name": "Circle K „Jūrininkai“, 31, Jūrininkų pr., Laukininkai, Smeltalė, Smeltė, Klaipėda, Klaipėdos miesto savivaldybė, Klaipėdos apskritis, 95225, Lietuva",
    "query": "Jūrininkų pr. 31, Klaipėda, Lietuva",
    "geocode_updated_at": "2026-04-09T06:37:38.724Z",
    "status": "resolved"
  },
  {
    "station_id": "353173949c88dd6a",
    "lat": 54.4081412,
    "lon": 24.0166467,
    "display_name": "Emsi, 2, Ūdrijos g., Putinai, Alytus, Alytaus miesto savivaldybė, Alytaus apskritis, 62412, Lietuva",
    "query": "Ūdrijos g.2, Alytus, Lietuva",
    "geocode_updated_at": "2026-04-09T11:34:23.021Z",
    "status": "resolved"
  },
  {
    "station_id": "3628372287a26119",
    "lat": 54.6440341,
    "lon": 25.2074576,
    "display_name": "Švaros Broliai, 220A, Savanorių pr., Žemieji Paneriai, Vilkpėdės seniūnija, Vilnius, Vilniaus miesto savivaldybė, Vilniaus apskritis, 02301, Lietuva",
    "query": "Savanorių pr. 220A, Vilnius, Lietuva",
    "geocode_updated_at": "2026-04-09T06:42:55.377Z",
    "status": "resolved"
  },
  {
    "station_id": "36a825a4bd6a7f06",
    "lat": 54.8940105,
    "lon": 24.0066234,
    "display_name": "Circle K „Petrašiūnai“, 159, R. Kalantos g., Petrašiūnai, Petrašiūnų seniūnija, Kaunas, Kauno miesto savivaldybė, Kauno apskritis, 52314, Lietuva",
    "query": "R. Kalantos g. 159, Kaunas, Lietuva",
    "geocode_updated_at": "2026-04-09T06:37:18.091Z",
    "status": "resolved"
  },
  {
    "station_id": "370c0c3f3f6defbe",
    "lat": 55.9997952,
    "lon": 22.2416104,
    "display_name": "1, Mažeikių g., Telšiai, Telšių miesto seniūnija, Telšių rajono savivaldybė, Telšių apskritis, 87101, Lietuva",
    "query": "Mažeikių g. 1, Telšiai, Lietuva",
    "geocode_updated_at": "2026-04-09T06:39:40.352Z",
    "status": "resolved"
  },
  {
    "station_id": "3720628188d1388b",
    "lat": 54.9335863,
    "lon": 23.965766,
    "display_name": "Circle K „Greitkelis II“, 61C, Islandijos pl., Murava, Eigulių seniūnija, Kaunas, Kauno miesto savivaldybė, Kauno apskritis, 49117, Lietuva",
    "query": "Islandijos pl. 61C, Kaunas, Lietuva",
    "geocode_updated_at": "2026-04-09T06:37:11.682Z",
    "status": "resolved"
  },
  {
    "station_id": "37a4d0b923edbd5e",
    "lat": 55.2173453,
    "lon": 25.4033091,
    "display_name": "Baltic petroleum, 104, Vilniaus g., Molėtai, Luokesos seniūnija, Molėtų rajono savivaldybė, Utenos apskritis, 33114, Lietuva",
    "query": "Vilniaus g.104, Molėtai, Lietuva",
    "geocode_updated_at": "2026-04-09T06:35:39.735Z",
    "status": "resolved"
  },
  {
    "station_id": "37ad15c762e57464",
    "lat": 55.6927945,
    "lon": 21.1797494,
    "display_name": "Circle K „Žiedas“, 1A, Vilniaus pl., Naujadvaris, Gedminai, Klaipėda, Klaipėdos miesto savivaldybė, Klaipėdos apskritis, 94105, Lietuva",
    "query": "Vilniaus pl. 1A, Klaipėda, Lietuva",
    "geocode_updated_at": "2026-04-09T06:37:47.969Z",
    "status": "resolved"
  },
  {
    "station_id": "37bfd0d7bd007361",
    "lat": 55.7287147,
    "lon": 24.3389488,
    "display_name": "Circle K „Nemuno“, 92A, Klaipėdos g., Panevėžys, Panevėžio miesto savivaldybė, Panevėžio apskritis, 37383, Lietuva",
    "query": "Klaipėdos g. 92A, Panevėžys, Lietuva",
    "geocode_updated_at": "2026-04-09T06:38:01.320Z",
    "status": "resolved"
  },
  {
    "station_id": "37f956f91229d5fd",
    "lat": 54.9015997,
    "lon": 23.8950293,
    "display_name": "Circle K „Jonavos“, 38, Jonavos g., Žaliakalnio seniūnija, Kaunas, Kauno miesto savivaldybė, Kauno apskritis, 44263, Lietuva",
    "query": "Jonavos g. 38, Kaunas, Lietuva",
    "geocode_updated_at": "2026-04-09T06:37:12.926Z",
    "status": "resolved"
  },
  {
    "station_id": "38c317ced2afafe5",
    "lat": 55.2228435,
    "lon": 25.4045087,
    "display_name": "101, Vilniaus g., Molėtai, Luokesos seniūnija, Molėtų rajono savivaldybė, Utenos apskritis, 33116, Lietuva",
    "query": "Vilniaus g. 101, Molėtai, Lietuva",
    "geocode_updated_at": "2026-04-09T06:45:36.759Z",
    "status": "resolved"
  },
  {
    "station_id": "390cd74288026a79",
    "lat": 54.8550869,
    "lon": 24.4417261,
    "display_name": "Viada, 135, Gedimino g., Kaišiadorys, Kaišiadorių miesto seniūnija, Kaišiadorių rajono savivaldybė, Kauno apskritis, 56173, Lietuva",
    "query": "Gedimino g. 135, Kaišiadorys, Lietuva",
    "geocode_updated_at": "2026-04-09T06:44:30.211Z",
    "status": "resolved"
  },
  {
    "station_id": "394e64b88b52247c",
    "lat": 55.8275144,
    "lon": 21.1849852,
    "display_name": "Viada, 1A, Klaipėdos g., Kretingalė, Kretingalės seniūnija, Klaipėdos rajono savivaldybė, Klaipėdos apskritis, 96330, Lietuva",
    "query": "Klaipėdos g. 1A, Kretingalė, Lietuva",
    "geocode_updated_at": "2026-04-09T06:45:19.589Z",
    "status": "resolved"
  },
  {
    "station_id": "3965d2cbacf90369",
    "lat": null,
    "lon": null,
    "display_name": null,
    "query": "Bučių k., Lietuva",
    "geocode_updated_at": null,
    "status": "unresolved"
  },
  {
    "station_id": "397661e27dd23c17",
    "lat": 55.2781085,
    "lon": 23.959972,
    "display_name": "Neste „Kėdainiai“, 91E, J. Basanavičiaus g., Senamiestis, Kėdainiai, Kėdainių miesto seniūnija, Kėdainių rajono savivaldybė, Kauno apskritis, 57367, Lietuva",
    "query": "J. Basanavičiaus g. 91E, Kėdainiai, Lietuva",
    "geocode_updated_at": "2026-04-09T06:41:37.486Z",
    "status": "resolved"
  },
  {
    "station_id": "397f8f581d57d4d6",
    "lat": 54.9324269,
    "lon": 23.9180391,
    "display_name": "Emsi, 292B, Jonavos g., Eiguliai, Eigulių seniūnija, Kaunas, Kauno miesto savivaldybė, Kauno apskritis, 44131, Lietuva",
    "query": "Jonavos g. 292B, Kaunas, Lietuva",
    "geocode_updated_at": "2026-04-09T12:25:22.621Z",
    "status": "resolved"
  },
  {
    "station_id": "39a4027229405e9e",
    "lat": 55.9563473,
    "lon": 23.3084505,
    "display_name": "Apsaga, 47A, V. Bielskio g., Gubernija, Šiauliai, Šiaulių miesto savivaldybė, Šiaulių apskritis, 76159, Lietuva",
    "query": "V. Bielskio g. 47A, Šiauliai, Lietuva",
    "geocode_updated_at": "2026-04-08T15:54:45.454Z",
    "status": "resolved"
  },
  {
    "station_id": "39df5d0e12094af0",
    "lat": null,
    "lon": null,
    "display_name": null,
    "query": "Plento g. 46, Spanėnų k., Lietuva",
    "geocode_updated_at": null,
    "status": "unresolved"
  },
  {
    "station_id": "3a4cf3c15b586dac",
    "lat": 55.3008802,
    "lon": 20.9798761,
    "display_name": "Baltic Petroleum, 6, Nidos-Smiltynės pl., Nida, Neringa, Neringos savivaldybė, Klaipėdos apskritis, 93127, Lietuva",
    "query": "Nidos-Smiltynės pl. 6, Neringa, Lietuva",
    "geocode_updated_at": "2026-04-09T06:35:40.973Z",
    "status": "resolved"
  },
  {
    "station_id": "3a8f9917192d6866",
    "lat": 55.9235482,
    "lon": 23.3500986,
    "display_name": "Apsaga, 16, Vilniaus g., Lepšiai, Šiauliai, Šiaulių miesto savivaldybė, Šiaulių apskritis, 76266, Lietuva",
    "query": "Vilniaus g.16, Šiauliai, Lietuva",
    "geocode_updated_at": "2026-04-08T15:54:46.902Z",
    "status": "resolved"
  },
  {
    "station_id": "3abcfeada0a0a060",
    "lat": 55.9101897,
    "lon": 23.3528125,
    "display_name": "36B, Dubijos g., Zokniai, Šiauliai, Šiaulių miesto savivaldybė, Šiaulių apskritis, 77108, Lietuva",
    "query": "Dubijos g. 36, Lietuva",
    "geocode_updated_at": "2026-04-09T11:33:36.888Z",
    "status": "resolved"
  },
  {
    "station_id": "3b6e8ab5dbab16ed",
    "lat": null,
    "lon": null,
    "display_name": null,
    "query": "Molėtų g. 15, Didžiosios Riešės k., Lietuva",
    "geocode_updated_at": null,
    "status": "unresolved"
  },
  {
    "station_id": "3b765a1ee64a6b58",
    "lat": 54.7013241,
    "lon": 25.2638052,
    "display_name": "Plaunu pats, 37A, Geležinio Vilko g., Šnipiškės, Šnipiškių seniūnija, Vilnius, Vilniaus miesto savivaldybė, Vilniaus apskritis, 08104, Lietuva",
    "query": "Geležinio Vilko g. 37A, Vilnius, Lietuva",
    "geocode_updated_at": "2026-04-09T06:42:35.057Z",
    "status": "resolved"
  },
  {
    "station_id": "3b972a21d7b9ed50",
    "lat": null,
    "lon": null,
    "display_name": null,
    "query": "V. Striogos g. 4A, Padustėlis, Lietuva",
    "geocode_updated_at": null,
    "status": "unresolved"
  },
  {
    "station_id": "3bb9ef9678c8f0e7",
    "lat": 55.9221289,
    "lon": 23.2971368,
    "display_name": "Jozita, 1, Girulių g., Pabaliai, Šiauliai, Šiaulių miesto savivaldybė, Šiaulių apskritis, 78133, Lietuva",
    "query": "Girulių g. 1, Šiauliai, Lietuva",
    "geocode_updated_at": "2026-04-09T06:40:26.441Z",
    "status": "resolved"
  },
  {
    "station_id": "3c303f4acc343d5a",
    "lat": null,
    "lon": null,
    "display_name": null,
    "query": "Vilniaus pl. 21, Jakų k., Lietuva",
    "geocode_updated_at": null,
    "status": "unresolved"
  },
  {
    "station_id": "3ccc8a2dc50c8e13",
    "lat": 55.2408639,
    "lon": 24.7396036,
    "display_name": "Baltic Petroleum, 49, Kauno g., Ukmergė, Ukmergės miesto seniūnija, Ukmergės rajono savivaldybė, Vilniaus apskritis, 20118, Lietuva",
    "query": "Kauno g. 49, Ukmergė, Lietuva",
    "geocode_updated_at": "2026-04-09T06:36:26.642Z",
    "status": "resolved"
  },
  {
    "station_id": "3ce4024d77de4619",
    "lat": 55.4964609,
    "lon": 22.604119,
    "display_name": "Juodgirio g., Košiai I, Bijotų seniūnija, Šilalės rajono savivaldybė, Tauragės apskritis, 75227, Lietuva",
    "query": "Juodgirio k.1,, Lietuva",
    "geocode_updated_at": "2026-04-09T12:25:38.918Z",
    "status": "resolved"
  },
  {
    "station_id": "3d8337369b3de5f6",
    "lat": 54.9120996,
    "lon": 23.9726146,
    "display_name": "Neste „Taikos žiedo“, 80A, Taikos pr., Gričiupis, Gričiupio seniūnija, Kaunas, Kauno miesto savivaldybė, Kauno apskritis, 51295, Lietuva",
    "query": "Taikos pr. 80A, Kaunas, Lietuva",
    "geocode_updated_at": "2026-04-09T06:41:27.074Z",
    "status": "resolved"
  },
  {
    "station_id": "3da71b23f5fc6ba1",
    "lat": null,
    "lon": null,
    "display_name": null,
    "query": "Taikos g.1, Kreivalaužių k., Lietuva",
    "geocode_updated_at": null,
    "status": "unresolved"
  },
  {
    "station_id": "3e28780dbd7b0951",
    "lat": null,
    "lon": null,
    "display_name": null,
    "query": "Marijampolės g. 8, Rūdos k., Lietuva",
    "geocode_updated_at": null,
    "status": "unresolved"
  },
  {
    "station_id": "3e3eb20a48051e30",
    "lat": 55.9287546,
    "lon": 23.2975956,
    "display_name": "Circle K „Dubijos“, 20A, Dubijos g., Žaliūkės, Šiauliai, Šiaulių miesto savivaldybė, Šiaulių apskritis, 77207, Lietuva",
    "query": "Dubijos g. 20A, Šiauliai, Lietuva",
    "geocode_updated_at": "2026-04-09T06:38:10.724Z",
    "status": "resolved"
  },
  {
    "station_id": "3ed647f5501293e8",
    "lat": 54.9335293,
    "lon": 23.9684792,
    "display_name": "61A, Islandijos pl., Murava, Eigulių seniūnija, Kaunas, Kauno miesto savivaldybė, Kauno apskritis, 49107, Lietuva",
    "query": "Islandijos pl. 61A, Kaunas, Lietuva",
    "geocode_updated_at": "2026-04-09T06:44:43.383Z",
    "status": "resolved"
  },
  {
    "station_id": "3f87b3551dee6fc7",
    "lat": 54.2206302,
    "lon": 23.5089351,
    "display_name": "88, Turistų g., Lazdijai, Lazdijų miesto seniūnija, Lazdijų rajono savivaldybė, Alytaus apskritis, 67115, Lietuva",
    "query": "Turistų g. 88, Lazdijai, Lietuva",
    "geocode_updated_at": "2026-04-09T06:35:28.711Z",
    "status": "resolved"
  },
  {
    "station_id": "3fd0ea2c22125dbb",
    "lat": 54.8495446,
    "lon": 23.967082,
    "display_name": "Viada, 29, Marijampolės pl., Prendzeliava, Panemunės seniūnija, Kaunas, Kauno miesto savivaldybė, Kauno apskritis, 46147, Lietuva",
    "query": "Marijampolės pl. 29, Kaunas, Lietuva",
    "geocode_updated_at": "2026-04-09T06:44:47.147Z",
    "status": "resolved"
  },
  {
    "station_id": "40e8a05982caec90",
    "lat": 54.6710312,
    "lon": 25.1921158,
    "display_name": "Circle K 1-2-3, 12, Oslo g., Gudeliai, Lazdynų seniūnija, Vilnius, Vilniaus miesto savivaldybė, Vilniaus apskritis, 04123, Lietuva",
    "query": "Oslo g. 12, Vilnius, Lietuva",
    "geocode_updated_at": "2026-04-09T06:38:51.515Z",
    "status": "resolved"
  },
  {
    "station_id": "41484523d3b26234",
    "lat": null,
    "lon": null,
    "display_name": null,
    "query": "Minijos g. 1, Aleksandravo k., Lietuva",
    "geocode_updated_at": null,
    "status": "unresolved"
  },
  {
    "station_id": "4185f99ff774d3e3",
    "lat": 54.7111087,
    "lon": 25.161795,
    "display_name": "2A, Zujūnų g., Padekaniškės, Pilaitės seniūnija, Vilnius, Vilniaus miesto savivaldybė, Vilniaus apskritis, 06282, Lietuva",
    "query": "Zujūnų g. 2A, Vilnius, Lietuva",
    "geocode_updated_at": "2026-04-09T06:36:47.774Z",
    "status": "resolved"
  },
  {
    "station_id": "41d08421ee211dc3",
    "lat": 55.6728215,
    "lon": 21.2017347,
    "display_name": "1, Plieno g., Bandužiai, Vaidaugai, Smeltė, Klaipėda, Klaipėdos miesto savivaldybė, Klaipėdos apskritis, 95112, Lietuva",
    "query": "Plieno g. 1, Klaipėda, Lietuva",
    "geocode_updated_at": "2026-04-09T06:41:41.385Z",
    "status": "resolved"
  },
  {
    "station_id": "41e1ec020ca317e9",
    "lat": null,
    "lon": null,
    "display_name": null,
    "query": "Ž. Kalvarijos g. 1A, Plateliai, Lietuva",
    "geocode_updated_at": null,
    "status": "unresolved"
  },
  {
    "station_id": "42034d88be32d1fd",
    "lat": null,
    "lon": null,
    "display_name": null,
    "query": "Vijoklių g. 1C, Ramučių k., Lietuva",
    "geocode_updated_at": null,
    "status": "unresolved"
  },
  {
    "station_id": "4230016c2626880d",
    "lat": 54.4395641,
    "lon": 25.3273302,
    "display_name": "Viada, 13, Lydos g., Keturiai, Jašiūnai, Jašiūnų seniūnija, Šalčininkų rajono savivaldybė, Vilniaus apskritis, 30132, Lietuva",
    "query": "Lydos g. 13, Jašiūnai, Lietuva",
    "geocode_updated_at": "2026-04-09T06:46:06.339Z",
    "status": "resolved"
  },
  {
    "station_id": "425bcf3ad499e317",
    "lat": null,
    "lon": null,
    "display_name": null,
    "query": "Muitinės g. 35, Pelucmurgių k., Lietuva",
    "geocode_updated_at": null,
    "status": "unresolved"
  },
  {
    "station_id": "4264a188f7a38eb1",
    "lat": null,
    "lon": null,
    "display_name": null,
    "query": "Kreivukės km., Lietuva",
    "geocode_updated_at": null,
    "status": "unresolved"
  },
  {
    "station_id": "427b115c067bd810",
    "lat": 55.9053537,
    "lon": 23.2601708,
    "display_name": "26, Gegužių g., Senieji Dainai, Lieporiai, Šiauliai, Šiaulių miesto savivaldybė, Šiaulių apskritis, 78348, Lietuva",
    "query": "Gegužių g. 26, Šiauliai, Lietuva",
    "geocode_updated_at": "2026-04-09T06:46:09.064Z",
    "status": "resolved"
  },
  {
    "station_id": "430720829feee276",
    "lat": 55.9093544,
    "lon": 23.3194671,
    "display_name": "Circle K „Pabaliai“, 17A, Pramonės g., Verduliai, Šiauliai, Šiaulių miesto savivaldybė, Šiaulių apskritis, 78136, Lietuva",
    "query": "Pramonės g. 17a, Šiauliai, Lietuva",
    "geocode_updated_at": "2026-04-09T06:38:11.985Z",
    "status": "resolved"
  },
  {
    "station_id": "4392110d5cc50bff",
    "lat": null,
    "lon": null,
    "display_name": null,
    "query": "Algirdo g. 42, Mažeikiai, Lietuva",
    "geocode_updated_at": null,
    "status": "unresolved"
  },
  {
    "station_id": "439df351622702f7",
    "lat": null,
    "lon": null,
    "display_name": null,
    "query": "Ąžuolų Būdos k., Lietuva",
    "geocode_updated_at": null,
    "status": "unresolved"
  },
  {
    "station_id": "43daf22b204ab120",
    "lat": null,
    "lon": null,
    "display_name": null,
    "query": "Kretingsodžio k., Lietuva",
    "geocode_updated_at": null,
    "status": "unresolved"
  },
  {
    "station_id": "43f650e74cac2f44",
    "lat": null,
    "lon": null,
    "display_name": null,
    "query": "Ukmergė Kareivinių g. 64, Lietuva",
    "geocode_updated_at": null,
    "status": "unresolved"
  },
  {
    "station_id": "447e21a439e07db4",
    "lat": 54.6716123,
    "lon": 25.270971,
    "display_name": "Plaunu pats, 26, Kauno g., Naujamiestis, Naujamiesčio seniūnija, Vilnius, Vilniaus miesto savivaldybė, Vilniaus apskritis, 03209, Lietuva",
    "query": "Kauno g. 26, Vilnius, Lietuva",
    "geocode_updated_at": "2026-04-09T06:42:41.755Z",
    "status": "resolved"
  },
  {
    "station_id": "45053d593e016a11",
    "lat": null,
    "lon": null,
    "display_name": null,
    "query": "Santaikos g. 2A, Santaikos k., Lietuva",
    "geocode_updated_at": null,
    "status": "unresolved"
  },
  {
    "station_id": "453468827d5d584a",
    "lat": 54.7067448,
    "lon": 25.304138,
    "display_name": "Neste Minties, 54C, Žirmūnų g., Šiaurės miestelis, Žirmūnų seniūnija, Vilnius, Vilniaus miesto savivaldybė, Vilniaus apskritis, 09124, Lietuva",
    "query": "Žirmūnų g. 54C, Vilnius, Lietuva",
    "geocode_updated_at": "2026-04-09T06:43:02.435Z",
    "status": "resolved"
  },
  {
    "station_id": "459ee734431738bb",
    "lat": null,
    "lon": null,
    "display_name": null,
    "query": "Ilgoji g. 1, Aukštelkės k., Lietuva",
    "geocode_updated_at": null,
    "status": "unresolved"
  },
  {
    "station_id": "469d66aaf3d37dd2",
    "lat": 54.6586559,
    "lon": 25.2666334,
    "display_name": "Circle K „Tūkstantmetis“, 26A, Prūsų g., Naujininkai, Naujininkų seniūnija, Vilnius, Vilniaus miesto savivaldybė, Vilniaus apskritis, 02154, Lietuva",
    "query": "Prūsų g. 26 A, Vilnius, Lietuva",
    "geocode_updated_at": "2026-04-09T06:38:54.511Z",
    "status": "resolved"
  },
  {
    "station_id": "46b81c1550adba8c",
    "lat": 54.0302436,
    "lon": 23.9832836,
    "display_name": "Baltic Petroleum, 26, Leipalingio g., Senamiestis, Druskininkai, Druskininkų savivaldybė, Alytaus apskritis, 66371, Lietuva",
    "query": "Leipalingio g. 26, Druskininkai, Lietuva",
    "geocode_updated_at": "2026-04-09T06:34:53.651Z",
    "status": "resolved"
  },
  {
    "station_id": "4732bf4cf85907c7",
    "lat": 55.3899919,
    "lon": 23.130755,
    "display_name": "Jozita, 78B, Maironio g., Raseiniai, Raseinių miesto seniūnija, Raseinių rajono savivaldybė, Kauno apskritis, 60119, Lietuva",
    "query": "Maironio g. 78b, Raseiniai, Lietuva",
    "geocode_updated_at": "2026-04-09T06:40:22.318Z",
    "status": "resolved"
  },
  {
    "station_id": "475be9ab3381a211",
    "lat": 55.255132,
    "lon": 25.990569,
    "display_name": "Viada, 1, Utenos g., Kaltanėnai, Kaltanėnų seniūnija, Švenčionių rajono savivaldybė, Vilniaus apskritis, 18239, Lietuva",
    "query": "Utenos g. 1, Kaltanėnai, Lietuva",
    "geocode_updated_at": "2026-04-09T06:46:23.712Z",
    "status": "resolved"
  },
  {
    "station_id": "476a15c5d212640d",
    "lat": 55.6684939,
    "lon": 21.159076,
    "display_name": "154A, Minijos g., Žvejybos uostas, Poilsis, Gedminai, Klaipėda, Klaipėdos miesto savivaldybė, Klaipėdos apskritis, 93290, Lietuva",
    "query": "Minijos g.154A, Klaipėda, Lietuva",
    "geocode_updated_at": "2026-04-09T12:25:40.914Z",
    "status": "resolved"
  },
  {
    "station_id": "47f39897bfc7589f",
    "lat": 55.0789086,
    "lon": 23.3969234,
    "display_name": "69, S. Šimkaus g., Belvederis, Seredžiaus seniūnija, Jurbarko rajono savivaldybė, Tauragės apskritis, 74425, Lietuva",
    "query": "S. Šimkaus g. 69, Seredžius, Lietuva",
    "geocode_updated_at": "2026-04-09T06:39:49.547Z",
    "status": "resolved"
  },
  {
    "station_id": "48384a7620a16e3b",
    "lat": 54.8664488,
    "lon": 23.8894647,
    "display_name": "Viada, 117, Veiverių g., Julijanava, Aleksoto seniūnija, Kaunas, Kauno miesto savivaldybė, Kauno apskritis, 46386, Lietuva",
    "query": "Veiverių g. 117, Kaunas, Lietuva",
    "geocode_updated_at": "2026-04-09T06:44:56.770Z",
    "status": "resolved"
  },
  {
    "station_id": "48647e9c5097b71b",
    "lat": null,
    "lon": null,
    "display_name": null,
    "query": "Alytus Pramonės g. 5, Lietuva",
    "geocode_updated_at": null,
    "status": "unresolved"
  },
  {
    "station_id": "48d11abdf97999b4",
    "lat": null,
    "lon": null,
    "display_name": null,
    "query": "Grigaičiai, Pavilnės g., Lietuva",
    "geocode_updated_at": null,
    "status": "unresolved"
  },
  {
    "station_id": "4a39668cb2767c34",
    "lat": 55.8255852,
    "lon": 23.523504,
    "display_name": "Baltic Petroleum, 1A, Šiaulių g., Radviliškis, Radviliškio miesto seniūnija, Radviliškio rajono savivaldybė, Šiaulių apskritis, 82142, Lietuva",
    "query": "Šiaulių g. 1A, Radviliškis, Lietuva",
    "geocode_updated_at": "2026-04-09T06:35:57.142Z",
    "status": "resolved"
  },
  {
    "station_id": "4af56430b63fbf52",
    "lat": null,
    "lon": null,
    "display_name": null,
    "query": "Sendvario g. 2, Sudmantų k., Lietuva",
    "geocode_updated_at": null,
    "status": "unresolved"
  },
  {
    "station_id": "4c322af0be090b4b",
    "lat": null,
    "lon": null,
    "display_name": null,
    "query": "Vilkaraisčio k., Lietuva",
    "geocode_updated_at": null,
    "status": "unresolved"
  },
  {
    "station_id": "4c866ff48c1a9322",
    "lat": null,
    "lon": null,
    "display_name": null,
    "query": "Pašvenčio km., Lietuva",
    "geocode_updated_at": null,
    "status": "unresolved"
  },
  {
    "station_id": "4d96856f3c339ecc",
    "lat": 55.709517,
    "lon": 24.3747541,
    "display_name": "Neste „Ramygalos“, 145B, Ramygalos g., Panevėžys, Panevėžio miesto savivaldybė, Panevėžio apskritis, 36255, Lietuva",
    "query": "Ramygalos g. 145B, Panevėžys, Lietuva",
    "geocode_updated_at": "2026-04-09T06:42:04.186Z",
    "status": "resolved"
  },
  {
    "station_id": "4da885472955ac8a",
    "lat": null,
    "lon": null,
    "display_name": null,
    "query": "Paršežerio g.1, Vabalų k., Lietuva",
    "geocode_updated_at": null,
    "status": "unresolved"
  },
  {
    "station_id": "4dcbf4895d94ffee",
    "lat": null,
    "lon": null,
    "display_name": null,
    "query": "Vilkaviškio g. 10, Serdokų k., Lietuva",
    "geocode_updated_at": null,
    "status": "unresolved"
  },
  {
    "station_id": "4dd8995bc099694b",
    "lat": null,
    "lon": null,
    "display_name": null,
    "query": "Skuodo g. 7, Stripinių k., Lietuva",
    "geocode_updated_at": null,
    "status": "unresolved"
  },
  {
    "station_id": "4e216158e95629f0",
    "lat": null,
    "lon": null,
    "display_name": null,
    "query": "Valantiškio k., Lietuva",
    "geocode_updated_at": null,
    "status": "unresolved"
  },
  {
    "station_id": "4e96aa7515536585",
    "lat": 54.2564922,
    "lon": 24.5470516,
    "display_name": "Baltic Petroleum, 6A, Vilniaus g., Senoji Varėna, Varėnos seniūnija, Varėnos rajono savivaldybė, Alytaus apskritis, 65489, Lietuva",
    "query": "Vilniaus g. 6A, Senoji Varėna, Lietuva",
    "geocode_updated_at": "2026-04-09T06:36:31.305Z",
    "status": "resolved"
  },
  {
    "station_id": "4eea54d1b5d37aed",
    "lat": 54.6511367,
    "lon": 25.1502321,
    "display_name": "Alauša, 23A, Kirtimų g., Panerių seniūnija, Vilnius, Vilniaus miesto savivaldybė, Vilniaus apskritis, 02242, Lietuva",
    "query": "Kirtimų g. 23A, Vilnius, Lietuva",
    "geocode_updated_at": "2026-04-09T11:32:49.471Z",
    "status": "resolved"
  },
  {
    "station_id": "4f456ba01baa3dc0",
    "lat": null,
    "lon": null,
    "display_name": null,
    "query": "Sausalaukės k. 2, Lietuva",
    "geocode_updated_at": null,
    "status": "unresolved"
  },
  {
    "station_id": "4f4d0b96dd2097d6",
    "lat": 54.6950807,
    "lon": 25.2981194,
    "display_name": "Circle K „Žirmūnų tiltas“, 16A, Sporto g., Žirmūnų seniūnija, Vilnius, Vilniaus miesto savivaldybė, Vilniaus apskritis, 09200, Lietuva",
    "query": "Sporto g. 16A, Vilnius, Lietuva",
    "geocode_updated_at": "2026-04-09T06:38:58.485Z",
    "status": "resolved"
  },
  {
    "station_id": "4f6ff8b7b0903187",
    "lat": null,
    "lon": null,
    "display_name": null,
    "query": "Kvėdarnos g. 2, Vatušių k., Lietuva",
    "geocode_updated_at": null,
    "status": "unresolved"
  },
  {
    "station_id": "4f867335eeff8f34",
    "lat": 55.5051789,
    "lon": 25.6248833,
    "display_name": "129, J. Basanavičiaus g., Smėlis, Utena, Utenos miesto seniūnija, Utenos rajono savivaldybė, Utenos apskritis, 28210, Lietuva",
    "query": "J. Basanavičiaus g. 129, Utena, Lietuva",
    "geocode_updated_at": "2026-04-09T06:42:24.736Z",
    "status": "resolved"
  },
  {
    "station_id": "4ffdd848f1ea1c32",
    "lat": 55.5118474,
    "lon": 25.6000041,
    "display_name": "Alauša, 1, Palijoniškio g., Utenos nuotekų valymo įrenginiai, Dauniškis, Utena, Utenos miesto seniūnija, Utenos rajono savivaldybė, Utenos apskritis, 28180, Lietuva",
    "query": "Palijoniškio g. 1, Utena, Lietuva",
    "geocode_updated_at": "2026-04-09T11:32:43.737Z",
    "status": "resolved"
  },
  {
    "station_id": "500cb011873b9b2c",
    "lat": null,
    "lon": null,
    "display_name": null,
    "query": "Raščių k. 1A, Lietuva",
    "geocode_updated_at": null,
    "status": "unresolved"
  },
  {
    "station_id": "50233acc1e91e039",
    "lat": 54.6589215,
    "lon": 25.1611257,
    "display_name": "Circle K „Gariūnai“, 45, Gariūnų g., Gariūnai, Panerių seniūnija, Vilnius, Vilniaus miesto savivaldybė, Vilniaus apskritis, 02300, Lietuva",
    "query": "Gariūnų g. 45, Vilnius, Lietuva",
    "geocode_updated_at": "2026-04-09T06:38:39.135Z",
    "status": "resolved"
  },
  {
    "station_id": "5130cc8051f65536",
    "lat": null,
    "lon": null,
    "display_name": null,
    "query": "Panevėžio aplinkl. 7, Šilagalio k., Lietuva",
    "geocode_updated_at": null,
    "status": "unresolved"
  },
  {
    "station_id": "5186a6ab5a57d334",
    "lat": null,
    "lon": null,
    "display_name": null,
    "query": "Mokyklos g. 26, Maišiagalos mstl., Lietuva",
    "geocode_updated_at": null,
    "status": "unresolved"
  },
  {
    "station_id": "51feb279217b0ffd",
    "lat": null,
    "lon": null,
    "display_name": null,
    "query": "Palangos g. 66, Utena, Lietuva",
    "geocode_updated_at": null,
    "status": "unresolved"
  },
  {
    "station_id": "524f531147e0eb1c",
    "lat": 55.0823811,
    "lon": 24.2709727,
    "display_name": "Baltic Petroleum, 1, Žemaitės g., Jonava, Jonavos seniūnija, Jonavos rajono savivaldybė, Kauno apskritis, 55134, Lietuva",
    "query": "Žemaitės g. 1, Jonava, Lietuva",
    "geocode_updated_at": "2026-04-09T06:34:58.190Z",
    "status": "resolved"
  },
  {
    "station_id": "52b51de0846fee63",
    "lat": 54.7214903,
    "lon": 25.2561146,
    "display_name": "Neste „Stanevičiaus“, 3, S. Stanevičiaus g., Fabijoniškės, Fabijoniškių seniūnija, Vilnius, Vilniaus miesto savivaldybė, Vilniaus apskritis, 07131, Lietuva",
    "query": "S. Stanevičiaus g. 3, Vilnius, Lietuva",
    "geocode_updated_at": "2026-04-09T06:42:52.882Z",
    "status": "resolved"
  },
  {
    "station_id": "52bf3c87393298ac",
    "lat": 55.6347932,
    "lon": 22.9454316,
    "display_name": "Abromika, 1B, Kęstučio g., Kelmė, Kelmės seniūnija, Kelmės rajono savivaldybė, Šiaulių apskritis, 86140, Lietuva",
    "query": "Kęstučio g. 1B, Kelmė, Lietuva",
    "geocode_updated_at": "2026-04-09T11:33:40.011Z",
    "status": "resolved"
  },
  {
    "station_id": "53278fabe2ebc4a5",
    "lat": 54.9271996,
    "lon": 24.0430425,
    "display_name": "Viada, 105, Ateities pl., Palemonas, Petrašiūnų seniūnija, Kaunas, Kauno miesto savivaldybė, Kauno apskritis, 52104, Lietuva",
    "query": "Ateities pl. 105, Kaunas, Lietuva",
    "geocode_updated_at": "2026-04-09T06:44:36.430Z",
    "status": "resolved"
  },
  {
    "station_id": "535ba9d0d4aa026a",
    "lat": 54.419463,
    "lon": 23.0387666,
    "display_name": "Aleksandravas, Akmenynų seniūnija, Kalvarijos savivaldybė, Marijampolės apskritis, Lietuva",
    "query": "Aleksandravo k., Lietuva",
    "geocode_updated_at": "2026-04-09T06:43:27.029Z",
    "status": "resolved"
  },
  {
    "station_id": "5390ce2586f869d3",
    "lat": null,
    "lon": null,
    "display_name": null,
    "query": "Plungės g. 32, Rietavas, Lietuva",
    "geocode_updated_at": null,
    "status": "unresolved"
  },
  {
    "station_id": "54cc9d9f51dabc4b",
    "lat": null,
    "lon": null,
    "display_name": null,
    "query": "Kuodaičių k., Lietuva",
    "geocode_updated_at": null,
    "status": "unresolved"
  },
  {
    "station_id": "54eddb4da03196ee",
    "lat": 55.2408142,
    "lon": 22.3052542,
    "display_name": "Viada, 1, Pramonės g., Žalgiriai, Tauragė, Tauragės miesto seniūnija, Tauragės rajono savivaldybė, Tauragės apskritis, 72359, Lietuva",
    "query": "Pramonės g. 1, Tauragė, Lietuva",
    "geocode_updated_at": "2026-04-09T06:46:30.426Z",
    "status": "resolved"
  },
  {
    "station_id": "5590feea7de606b3",
    "lat": 54.3838453,
    "lon": 23.659403,
    "display_name": "Skulas, 48, Alytaus g., Simnas, Simno seniūnija, Alytaus rajono savivaldybė, Alytaus apskritis, 64313, Lietuva",
    "query": "Alytaus g. 48, Simnas, Lietuva",
    "geocode_updated_at": "2026-04-09T06:43:52.942Z",
    "status": "resolved"
  },
  {
    "station_id": "55badaaf0514fb5f",
    "lat": null,
    "lon": null,
    "display_name": null,
    "query": "Gėlių g. 1A, Ringaudų k., Lietuva",
    "geocode_updated_at": null,
    "status": "unresolved"
  },
  {
    "station_id": "56385b4c84872f25",
    "lat": null,
    "lon": null,
    "display_name": null,
    "query": "Vilniaus pl. 9, Jakų k., Lietuva",
    "geocode_updated_at": null,
    "status": "unresolved"
  },
  {
    "station_id": "5691f76bb96a489e",
    "lat": 54.6526579,
    "lon": 25.3057172,
    "display_name": "Emsi, 112A, Liepkalnio g., Rasų seniūnija, Vilnius, Vilniaus miesto savivaldybė, Vilniaus apskritis, 02120, Lietuva",
    "query": "Liepkalnio g.112A, Vilnius, Lietuva",
    "geocode_updated_at": "2026-04-09T12:26:26.248Z",
    "status": "resolved"
  },
  {
    "station_id": "569724bfb7f2253d",
    "lat": 56.2013087,
    "lon": 24.7490206,
    "display_name": "Viada, 2, Parodos g., Naujamiestis, Biržai, Biržų miesto seniūnija, Biržų rajono savivaldybė, Panevėžio apskritis, 41136, Lietuva",
    "query": "Parodos g. 2, Biržai, Lietuva",
    "geocode_updated_at": "2026-04-09T06:44:20.708Z",
    "status": "resolved"
  },
  {
    "station_id": "573d9332994834c0",
    "lat": 54.695952,
    "lon": 25.4320796,
    "display_name": "Jozita, 18, Pramonės g., Naujoji Vilnia, Naujosios Vilnios seniūnija, Vilnius, Vilniaus miesto savivaldybė, Vilniaus apskritis, 11115, Lietuva",
    "query": "Pramonės g. 18, Vilnius, Lietuva",
    "geocode_updated_at": "2026-04-09T06:40:37.433Z",
    "status": "resolved"
  },
  {
    "station_id": "577a0f2ce797e786",
    "lat": null,
    "lon": null,
    "display_name": null,
    "query": "Žemaitės g. 131c, Lietuva",
    "geocode_updated_at": null,
    "status": "unresolved"
  },
  {
    "station_id": "578859a01ea4475c",
    "lat": 54.9068617,
    "lon": 23.8728216,
    "display_name": "Neste, 103, Raudondvario pl., Mikalinava, Vilijampolės seniūnija, Kaunas, Kauno miesto savivaldybė, Kauno apskritis, 47185, Lietuva",
    "query": "Raudondvario pl. 103, Kaunas, Lietuva",
    "geocode_updated_at": "2026-04-09T06:41:24.244Z",
    "status": "resolved"
  },
  {
    "station_id": "57d0560342e41d8d",
    "lat": 53.9998991,
    "lon": 23.9879595,
    "display_name": "Baltic Petroleum, 79, Gardino g., Druskininkai, Druskininkų savivaldybė, Alytaus apskritis, 66191, Lietuva",
    "query": "Gardino g. 79, Druskininkai, Lietuva",
    "geocode_updated_at": "2026-04-09T06:34:52.514Z",
    "status": "resolved"
  },
  {
    "station_id": "588eb527d5c866c5",
    "lat": null,
    "lon": null,
    "display_name": null,
    "query": "Erdvės g. 78, Ramučių k., Lietuva",
    "geocode_updated_at": null,
    "status": "unresolved"
  },
  {
    "station_id": "58ca64464fbf959a",
    "lat": null,
    "lon": null,
    "display_name": null,
    "query": "S. Daukanto g. 19D, Kazlų Rūda, Lietuva",
    "geocode_updated_at": null,
    "status": "unresolved"
  },
  {
    "station_id": "58d96e328d90895d",
    "lat": 54.9077624,
    "lon": 23.874128,
    "display_name": "Baltic Petroleum, 82, Raudondvario pl., Mikalinava, Vilijampolės seniūnija, Kaunas, Kauno miesto savivaldybė, Kauno apskritis, 47182, Lietuva",
    "query": "Raudondvario pl. 82, Kaunas, Lietuva",
    "geocode_updated_at": "2026-04-09T06:35:10.889Z",
    "status": "resolved"
  },
  {
    "station_id": "593c08bc3395f150",
    "lat": 55.0705601,
    "lon": 24.2632109,
    "display_name": "33, Vasario 16-osios g., Jonava, Jonavos seniūnija, Jonavos rajono savivaldybė, Kauno apskritis, 55164, Lietuva",
    "query": "Vasario 16-osios g. 33, Jonava, Lietuva",
    "geocode_updated_at": "2026-04-09T06:37:03.220Z",
    "status": "resolved"
  },
  {
    "station_id": "59c4d330b4158e5f",
    "lat": 54.7138968,
    "lon": 25.2096844,
    "display_name": "H2Auto, 2C, Talino g., Justiniškės, Justiniškių seniūnija, Vilnius, Vilniaus miesto savivaldybė, Vilniaus apskritis, 05202, Lietuva",
    "query": "Talino g. 2C, Vilnius, Lietuva",
    "geocode_updated_at": "2026-04-09T06:42:59.234Z",
    "status": "resolved"
  },
  {
    "station_id": "5a4af6330f0b67c9",
    "lat": null,
    "lon": null,
    "display_name": null,
    "query": "Vytauto g. 20, Skuodas, Lietuva",
    "geocode_updated_at": null,
    "status": "unresolved"
  },
  {
    "station_id": "5a8efb4e276c9a7b",
    "lat": null,
    "lon": null,
    "display_name": null,
    "query": "Nekrūnų k. 1, Lietuva",
    "geocode_updated_at": null,
    "status": "unresolved"
  },
  {
    "station_id": "5aa2023fb2590369",
    "lat": 54.6583266,
    "lon": 25.1592954,
    "display_name": "Egas Spaauto, 55, Gariūnų g., Gariūnai, Panerių seniūnija, Vilnius, Vilniaus miesto savivaldybė, Vilniaus apskritis, 02300, Lietuva",
    "query": "Gariūnų g. 55, Vilnius, Lietuva",
    "geocode_updated_at": "2026-04-09T06:42:33.607Z",
    "status": "resolved"
  },
  {
    "station_id": "5aad2a2070e88669",
    "lat": 55.6664679,
    "lon": 21.1726233,
    "display_name": "Circle K „Smiltelė“, 112A, Taikos pr., Alksnynė, Varpai, Smeltė, Klaipėda, Klaipėdos miesto savivaldybė, Klaipėdos apskritis, 93150, Lietuva",
    "query": "Taikos pr. 112A, Klaipėda, Lietuva",
    "geocode_updated_at": "2026-04-09T06:37:43.374Z",
    "status": "resolved"
  },
  {
    "station_id": "5aed21a6996d3a87",
    "lat": 55.3528865,
    "lon": 21.4632498,
    "display_name": "Baltic Petroleum, 4A, Klaipėdos g., Šilutė, Šilutės seniūnija, Šilutės rajono savivaldybė, Klaipėdos apskritis, 99129, Lietuva",
    "query": "Klaipėdos g. 4A, Šilutė, Lietuva",
    "geocode_updated_at": "2026-04-09T06:36:16.588Z",
    "status": "resolved"
  },
  {
    "station_id": "5beba82f3a1ff7da",
    "lat": 55.4859035,
    "lon": 22.1996267,
    "display_name": "Milda, 2A, Rytinio Kelio g., Šilalė, Šilalės miesto seniūnija, Šilalės rajono savivaldybė, Tauragės apskritis, 75122, Lietuva",
    "query": "Rytinio Kelio g. 2a, Šilalė, Lietuva",
    "geocode_updated_at": "2026-04-09T06:39:32.324Z",
    "status": "resolved"
  },
  {
    "station_id": "5c6aba968a5d9c1a",
    "lat": 55.2156442,
    "lon": 25.2677333,
    "display_name": "Smėlinkos g., Smėlinka, Videniškių seniūnija, Molėtų rajono savivaldybė, Utenos apskritis, 33293, Lietuva",
    "query": "Smėlinkos k., Lietuva",
    "geocode_updated_at": "2026-04-09T11:33:44.905Z",
    "status": "resolved"
  },
  {
    "station_id": "5cc81e5da5d1ec4b",
    "lat": 55.7040549,
    "lon": 24.3811573,
    "display_name": "Kvistija, 155, Ramygalos g., Panevėžys, Panevėžio miesto savivaldybė, Panevėžio apskritis, 36255, Lietuva",
    "query": "Ramygalos g. 155, Panevėžys, Lietuva",
    "geocode_updated_at": "2026-04-09T06:45:43.372Z",
    "status": "resolved"
  },
  {
    "station_id": "5ce2ac5f5fd03c98",
    "lat": 55.7031833,
    "lon": 21.1647917,
    "display_name": "Neste „Sendvario“, 5C, Šilutės pl., Rumpiškės dvaras, Rumpiškė, Klaipėda, Klaipėdos miesto savivaldybė, Klaipėdos apskritis, 91109, Lietuva",
    "query": "Šilutės pl. 5C, Klaipėda, Lietuva",
    "geocode_updated_at": "2026-04-09T06:41:44.731Z",
    "status": "resolved"
  },
  {
    "station_id": "5cebdfd1304241c3",
    "lat": null,
    "lon": null,
    "display_name": null,
    "query": "Pievų g. 17, Slabados k., Lietuva",
    "geocode_updated_at": null,
    "status": "unresolved"
  },
  {
    "station_id": "5cec425337c94c2c",
    "lat": 54.9010209,
    "lon": 24.0311752,
    "display_name": "Emsi „Palemonas“, 3A, Palemono g., Amaliai, Petrašiūnų seniūnija, Kaunas, Kauno miesto savivaldybė, Kauno apskritis, 52159, Lietuva",
    "query": "Palemono g. 3A, Kaunas, Lietuva",
    "geocode_updated_at": "2026-04-09T12:25:27.826Z",
    "status": "resolved"
  },
  {
    "station_id": "5d096b75a47cc3d7",
    "lat": 56.063652,
    "lon": 24.4257529,
    "display_name": "EMSI, 24, Taikos g., Pasvalys, Pasvalio miesto seniūnija, Pasvalio rajono savivaldybė, Panevėžio apskritis, 39130, Lietuva",
    "query": "Taikos g.24, Pasvalys, Lietuva",
    "geocode_updated_at": "2026-04-09T12:26:01.886Z",
    "status": "resolved"
  },
  {
    "station_id": "5d0c6b07ff46eee7",
    "lat": null,
    "lon": null,
    "display_name": null,
    "query": "Vilniaus pl. 6, Sudmantų k., Lietuva",
    "geocode_updated_at": null,
    "status": "unresolved"
  },
  {
    "station_id": "5d4894d1a204c060",
    "lat": null,
    "lon": null,
    "display_name": null,
    "query": "Kretingos pl. 1, Gargždai, Lietuva",
    "geocode_updated_at": null,
    "status": "unresolved"
  },
  {
    "station_id": "5d7ff240c433b806",
    "lat": 55.3320479,
    "lon": 26.1671283,
    "display_name": "Alauša, 29A, Švenčionių g., Ignalina, Ignalinos miesto seniūnija, Ignalinos rajono savivaldybė, Utenos apskritis, 30132, Lietuva",
    "query": "Švenčionių g. 29A, Ignalina, Lietuva",
    "geocode_updated_at": "2026-04-09T11:32:23.879Z",
    "status": "resolved"
  },
  {
    "station_id": "5dad36b75be4a544",
    "lat": 55.5089869,
    "lon": 25.1005651,
    "display_name": "23, Mindaugo g., Jurzdikas, Pašventupys, Anykščiai, Anykščių seniūnija, Anykščių rajono savivaldybė, Utenos apskritis, 29141, Lietuva",
    "query": "Mindaugo g. 23, Anykščiai, Lietuva",
    "geocode_updated_at": "2026-04-09T06:34:50.236Z",
    "status": "resolved"
  },
  {
    "station_id": "5e1a4858af7e1f7c",
    "lat": 55.5050046,
    "lon": 25.6209141,
    "display_name": "Circle K „Utena“ I, 108A, J. Basanavičiaus g., Smėlis, Utena, Utenos miesto seniūnija, Utenos rajono savivaldybė, Utenos apskritis, 28214, Lietuva",
    "query": "J. Basanavičiaus g. 108a, Utena, Lietuva",
    "geocode_updated_at": "2026-04-09T06:38:28.547Z",
    "status": "resolved"
  },
  {
    "station_id": "5e85a48976191c14",
    "lat": 54.71563,
    "lon": 25.2287063,
    "display_name": "Neste „Justiniškių“, 2, Rygos g., Viršuliškės, Viršuliškių seniūnija, Vilnius, Vilniaus miesto savivaldybė, Vilniaus apskritis, 05259, Lietuva",
    "query": "Rygos g. 2, Vilnius, Lietuva",
    "geocode_updated_at": "2026-04-09T06:42:51.662Z",
    "status": "resolved"
  },
  {
    "station_id": "5f2d02d3cd492c9d",
    "lat": 55.6681613,
    "lon": 21.2086486,
    "display_name": "Orlen, 94, Šilutės pl., Rimkai, Kretainis, Klaipėda, Klaipėdos miesto savivaldybė, Klaipėdos apskritis, 95264, Lietuva",
    "query": "Šilutės pl. 94, Klaipėda, Lietuva",
    "geocode_updated_at": "2026-04-09T06:43:23.090Z",
    "status": "resolved"
  },
  {
    "station_id": "5f544036a374c2bd",
    "lat": 55.9049517,
    "lon": 23.3280681,
    "display_name": "Apsaga, 28, Pramonės g., Verduliai, Šiauliai, Šiaulių miesto savivaldybė, Šiaulių apskritis, 76001, Lietuva",
    "query": "Pramonės g. 28, Šiauliai, Lietuva",
    "geocode_updated_at": "2026-04-08T15:54:41.554Z",
    "status": "resolved"
  },
  {
    "station_id": "5f86b09acc348dd6",
    "lat": null,
    "lon": null,
    "display_name": null,
    "query": "Jankiškių g. 43a, Vilnius, Lietuva",
    "geocode_updated_at": null,
    "status": "unresolved"
  },
  {
    "station_id": "5feb550a1ee54c5a",
    "lat": 54.3864789,
    "lon": 24.0330607,
    "display_name": "Baltic Petroleum, 33, Santaikos g., Alytus, Alytaus miesto savivaldybė, Alytaus apskritis, 62123, Lietuva",
    "query": "Santaikos g. 33, Alytus, Lietuva",
    "geocode_updated_at": "2026-04-09T06:34:49.096Z",
    "status": "resolved"
  },
  {
    "station_id": "601110a381071561",
    "lat": null,
    "lon": null,
    "display_name": null,
    "query": "Veiviržėnų g. 29, Pyktiškės k., Lietuva",
    "geocode_updated_at": null,
    "status": "unresolved"
  },
  {
    "station_id": "60ab504f0bd00eed",
    "lat": 55.9156229,
    "lon": 21.0783812,
    "display_name": "Baltic Petroleum, 44, Klaipėdos pl., Palanga, Palangos miesto savivaldybė, Klaipėdos apskritis, 00111, Lietuva",
    "query": "Klaipėdos pl. 44, Palanga, Lietuva",
    "geocode_updated_at": "2026-04-09T06:35:46.569Z",
    "status": "resolved"
  },
  {
    "station_id": "6123b1238dd5633d",
    "lat": 54.7890725,
    "lon": 24.6724424,
    "display_name": "H2Auto, 1U, Sabališkių g., Elektrėnai, Elektrėnų seniūnija, Elektrėnų savivaldybė, Vilniaus apskritis, 26124, Lietuva",
    "query": "Sabališkių g. 1U, Elektrėnai, Lietuva",
    "geocode_updated_at": "2026-04-09T06:41:08.316Z",
    "status": "resolved"
  },
  {
    "station_id": "6164e58a3f87b8de",
    "lat": 54.3179349,
    "lon": 25.3815802,
    "display_name": "Baltic Petroleum, 5A, Vilniaus g., Šalčininkai, Šalčininkų seniūnija, Šalčininkų rajono savivaldybė, Vilniaus apskritis, 17104, Lietuva",
    "query": "Vilniaus g. 5A, Šalčininkai, Lietuva",
    "geocode_updated_at": "2026-04-09T06:36:11.095Z",
    "status": "resolved"
  },
  {
    "station_id": "61746719847ea9b9",
    "lat": 55.4901207,
    "lon": 25.6503434,
    "display_name": "23, Pramonės g., Pramonės rajonas, Utena, Utenos miesto seniūnija, Utenos rajono savivaldybė, Utenos apskritis, 28119, Lietuva",
    "query": "Pramonės g. 23, Utena, Lietuva",
    "geocode_updated_at": "2026-04-09T06:46:40.539Z",
    "status": "resolved"
  },
  {
    "station_id": "627349a33cdafb85",
    "lat": 55.9522264,
    "lon": 25.589774,
    "display_name": "Circle K „Rokiškis“, 111A, Respublikos g., Rokiškis, Rokiškio miesto seniūnija, Rokiškio rajono savivaldybė, Panevėžio apskritis, 42145, Lietuva",
    "query": "Respublikos g. 111A, Rokiškis, Lietuva",
    "geocode_updated_at": "2026-04-09T06:38:09.426Z",
    "status": "resolved"
  },
  {
    "station_id": "62cbac4ba7322b23",
    "lat": 54.9515318,
    "lon": 23.8936351,
    "display_name": "EMSI, 86A, Vandžiogalos pl., Sargėnai, Šilainių seniūnija, Kaunas, Kauno miesto savivaldybė, Kauno apskritis, 47479, Lietuva",
    "query": "Vandžiogalos pl.86A, Kaunas, Lietuva",
    "geocode_updated_at": "2026-04-09T12:25:37.097Z",
    "status": "resolved"
  },
  {
    "station_id": "62f12a8c67e0d625",
    "lat": 55.3709621,
    "lon": 23.1331497,
    "display_name": "Baltic Petroleum, 30, Vilniaus g., Raseiniai, Raseinių miesto seniūnija, Raseinių rajono savivaldybė, Kauno apskritis, 60183, Lietuva",
    "query": "Vilniaus g. 30, Raseiniai, Lietuva",
    "geocode_updated_at": "2026-04-09T06:36:01.969Z",
    "status": "resolved"
  },
  {
    "station_id": "6380e3dbf05b7a1a",
    "lat": 54.6515293,
    "lon": 25.2694468,
    "display_name": "Circle K „Oro uostas“, 11, Eišiškių pl., Naujininkai, Naujininkų seniūnija, Vilnius, Vilniaus miesto savivaldybė, Vilniaus apskritis, 02184, Lietuva",
    "query": "Eišiškių pl. 11, Vilnius, Lietuva",
    "geocode_updated_at": "2026-04-09T06:38:37.793Z",
    "status": "resolved"
  },
  {
    "station_id": "638de0cecc104dce",
    "lat": 55.9139254,
    "lon": 23.3369683,
    "display_name": "Orlen, 82, Serbentų g., Pakartuvės, Šiauliai, Šiaulių miesto savivaldybė, Šiaulių apskritis, 77121, Lietuva",
    "query": "Serbentų g. 82, Šiauliai, Lietuva",
    "geocode_updated_at": "2026-04-09T06:43:39.255Z",
    "status": "resolved"
  },
  {
    "station_id": "63ca617bb234511d",
    "lat": 54.9293519,
    "lon": 23.9734688,
    "display_name": "Neste „Muravos“, 441C, Savanorių pr., Murava, Eigulių seniūnija, Kaunas, Kauno miesto savivaldybė, Kauno apskritis, 49185, Lietuva",
    "query": "Savanorių pr. 441C, Kaunas, Lietuva",
    "geocode_updated_at": "2026-04-09T06:41:25.647Z",
    "status": "resolved"
  },
  {
    "station_id": "63ec459c234b15ab",
    "lat": null,
    "lon": null,
    "display_name": null,
    "query": "Masčio g. 21, Telšiai, Lietuva",
    "geocode_updated_at": null,
    "status": "unresolved"
  },
  {
    "station_id": "64670ef07a442c71",
    "lat": 54.5556517,
    "lon": 23.375474,
    "display_name": "Baltic Petroleum, 15, Vasaros g., Triobiškiai, Marijampolė, Marijampolės savivaldybė, Marijampolės apskritis, 68114, Lietuva",
    "query": "Vasaros g. 15, Marijampolė, Lietuva",
    "geocode_updated_at": "2026-04-09T06:35:34.536Z",
    "status": "resolved"
  },
  {
    "station_id": "64eb903f2caebc8e",
    "lat": 55.244496,
    "lon": 24.75002,
    "display_name": "37, Kauno g., Smėliai, Ukmergė, Ukmergės miesto seniūnija, Ukmergės rajono savivaldybė, Vilniaus apskritis, 20120, Lietuva",
    "query": "Kauno g. 37, Ukmergė, Lietuva",
    "geocode_updated_at": "2026-04-09T11:32:41.149Z",
    "status": "resolved"
  },
  {
    "station_id": "650a579e8d958cf4",
    "lat": null,
    "lon": null,
    "display_name": null,
    "query": "Parko g. 3A, Noriūnų k., Lietuva",
    "geocode_updated_at": null,
    "status": "unresolved"
  },
  {
    "station_id": "65ebb460aacb87db",
    "lat": null,
    "lon": null,
    "display_name": null,
    "query": "Klaipėdos. 1, Traksėdžių k., Lietuva",
    "geocode_updated_at": null,
    "status": "unresolved"
  },
  {
    "station_id": "65f72334ffd9d986",
    "lat": null,
    "lon": null,
    "display_name": null,
    "query": "Kalninės g. 5, Likiškėlių k., Lietuva",
    "geocode_updated_at": null,
    "status": "unresolved"
  },
  {
    "station_id": "6638d92dc9f0d86d",
    "lat": 55.999255,
    "lon": 22.9896575,
    "display_name": "Circle K „Kuršėnai“, 1, Plento g., Kuršėnai, Kuršėnų kaimiškoji seniūnija, Šiaulių rajono savivaldybė, Šiaulių apskritis, 81115, Lietuva",
    "query": "Plento g. 1, Kuršėnai, Lietuva",
    "geocode_updated_at": "2026-04-09T06:38:15.746Z",
    "status": "resolved"
  },
  {
    "station_id": "663f131b19e4bf92",
    "lat": null,
    "lon": null,
    "display_name": null,
    "query": "Automagistralės g. 4, Giraitės k., Lietuva",
    "geocode_updated_at": null,
    "status": "unresolved"
  },
  {
    "station_id": "66b5def6f56340e7",
    "lat": null,
    "lon": null,
    "display_name": null,
    "query": "Bukiškio k. Ukmergės g.437, Lietuva",
    "geocode_updated_at": null,
    "status": "unresolved"
  },
  {
    "station_id": "6777c6db4e1e35e5",
    "lat": 55.9998764,
    "lon": 22.9476558,
    "display_name": "Viada, 38A, Vilniaus g., Kuršėnai, Kuršėnų miesto seniūnija, Šiaulių rajono savivaldybė, Šiaulių apskritis, 81136, Lietuva",
    "query": "Vilniaus g. 38A, Kuršėnai, Lietuva",
    "geocode_updated_at": "2026-04-09T06:46:16.847Z",
    "status": "resolved"
  },
  {
    "station_id": "687afa1f75219710",
    "lat": 55.6848499,
    "lon": 21.1607125,
    "display_name": "Taikos pr., Pamarys, Gedminai, Klaipėda, Klaipėdos miesto savivaldybė, Klaipėdos apskritis, 94113, Lietuva",
    "query": "Taikos pr. 70A-1, Klaipėda, Lietuva",
    "geocode_updated_at": "2026-04-09T06:45:12.268Z",
    "status": "resolved"
  },
  {
    "station_id": "68b12cd8837801a8",
    "lat": null,
    "lon": null,
    "display_name": null,
    "query": "Pikelių k. 8, Lietuva",
    "geocode_updated_at": null,
    "status": "unresolved"
  },
  {
    "station_id": "692c106ef8a7b465",
    "lat": 54.7359333,
    "lon": 25.2654489,
    "display_name": "Circle K „Baltupiai“, 10, Baltupio g., Jeruzalė, Verkių seniūnija, Vilnius, Vilniaus miesto savivaldybė, Vilniaus apskritis, 08303, Lietuva",
    "query": "Baltupio g. 10, Vilnius, Lietuva",
    "geocode_updated_at": "2026-04-09T06:38:36.516Z",
    "status": "resolved"
  },
  {
    "station_id": "695dbc78f6c2a8fa",
    "lat": 55.4953295,
    "lon": 25.5748777,
    "display_name": "Baltic Petroleum, 1B, J. Basanavičiaus g., Naujamiestis, Utena, Utenos miesto seniūnija, Utenos rajono savivaldybė, Utenos apskritis, 28138, Lietuva",
    "query": "Basanavičiaus g. 1B, Utena, Lietuva",
    "geocode_updated_at": "2026-04-09T06:36:28.702Z",
    "status": "resolved"
  },
  {
    "station_id": "69603c88e9e35f90",
    "lat": 54.8875335,
    "lon": 23.9211443,
    "display_name": "Viada, 54, Karaliaus Mindaugo pr., Karmelitai, Centro seniūnija, Kaunas, Kauno miesto savivaldybė, Kauno apskritis, 44351, Lietuva",
    "query": "Karaliaus Mindaugo pr. 54, Kaunas, Lietuva",
    "geocode_updated_at": "2026-04-09T06:44:45.930Z",
    "status": "resolved"
  },
  {
    "station_id": "6961a02c2aec35d2",
    "lat": 54.9176824,
    "lon": 23.8630548,
    "display_name": "Viada, 18, Miežėnų g., Smėliai, Šilainių seniūnija, Kaunas, Kauno miesto savivaldybė, Kauno apskritis, 47115, Lietuva",
    "query": "Miežėnų g. 18, Kaunas, Lietuva",
    "geocode_updated_at": "2026-04-09T06:44:48.899Z",
    "status": "resolved"
  },
  {
    "station_id": "697a143a6a0304d8",
    "lat": null,
    "lon": null,
    "display_name": null,
    "query": "Dvaro g.1, Papynaujo k.,Kvėdarna, Lietuva",
    "geocode_updated_at": null,
    "status": "unresolved"
  },
  {
    "station_id": "69c17499bce47e5d",
    "lat": null,
    "lon": null,
    "display_name": null,
    "query": "Panarvės km., Lietuva",
    "geocode_updated_at": null,
    "status": "unresolved"
  },
  {
    "station_id": "69ca85d81d910ad1",
    "lat": 55.0825362,
    "lon": 22.7889958,
    "display_name": "66, S. Daukanto g., Jurbarkas, Jurbarkų seniūnija, Jurbarko rajono savivaldybė, Tauragės apskritis, 74170, Lietuva",
    "query": "S. Daukanto g. 66, Jurbarkas, Lietuva",
    "geocode_updated_at": "2026-04-09T06:39:48.286Z",
    "status": "resolved"
  },
  {
    "station_id": "69e68eb97edf1fef",
    "lat": null,
    "lon": null,
    "display_name": null,
    "query": "Topolių g. 1, Degučių k., Lietuva",
    "geocode_updated_at": null,
    "status": "unresolved"
  },
  {
    "station_id": "6abf5680045ca271",
    "lat": 55.5941513,
    "lon": 23.1795143,
    "display_name": "Antivis, 14, Žemaitės g., Tytuvėnai, Tytuvėnų seniūnija, Kelmės rajono savivaldybė, Šiaulių apskritis, 86490, Lietuva",
    "query": "Žemaitės g.14, Tytuvėnai, Lietuva",
    "geocode_updated_at": "2026-04-09T11:32:57.957Z",
    "status": "resolved"
  },
  {
    "station_id": "6afa303a8a0de016",
    "lat": 55.6608743,
    "lon": 21.1781231,
    "display_name": "Jozita, 157, Taikos pr., Laukininkai, Smeltalė, Smeltė, Klaipėda, Klaipėdos miesto savivaldybė, Klaipėdos apskritis, 94324, Lietuva",
    "query": "Taikos pr. 157, Klaipėda, Lietuva",
    "geocode_updated_at": "2026-04-09T06:40:12.036Z",
    "status": "resolved"
  },
  {
    "station_id": "6b1fb52abaa96f96",
    "lat": null,
    "lon": null,
    "display_name": null,
    "query": "Pievų g. 2, Klišių k., Lietuva",
    "geocode_updated_at": null,
    "status": "unresolved"
  },
  {
    "station_id": "6b8d5bfacb63df12",
    "lat": 54.9331246,
    "lon": 23.9434984,
    "display_name": "1A, Ašigalio g., Naujasodis, Eigulių seniūnija, Kaunas, Kauno miesto savivaldybė, Kauno apskritis, 49160, Lietuva",
    "query": "Ašigalio g. 1 A, Kaunas, Lietuva",
    "geocode_updated_at": "2026-04-09T06:43:56.660Z",
    "status": "resolved"
  },
  {
    "station_id": "6bf709940d8de95e",
    "lat": 56.003941,
    "lon": 22.2447458,
    "display_name": "Baltic Petroleum, 12, Šiaulių pl., Telšiai, Degaičių seniūnija, Telšių rajono savivaldybė, Telšių apskritis, 87101, Lietuva",
    "query": "Šiaulių pl. 12, Telšiai, Lietuva",
    "geocode_updated_at": "2026-04-09T06:36:23.971Z",
    "status": "resolved"
  },
  {
    "station_id": "6c0b6967c79746e7",
    "lat": 54.6133593,
    "lon": 25.1837307,
    "display_name": "35, Baltosios Vokės g., Aukštieji Paneriai, Panerių seniūnija, Vilnius, Vilniaus miesto savivaldybė, Vilniaus apskritis, 02243, Lietuva",
    "query": "Baltosios Vokės g 35, Vilnius, Lietuva",
    "geocode_updated_at": "2026-04-09T06:40:34.396Z",
    "status": "resolved"
  },
  {
    "station_id": "6c38e324b22ee568",
    "lat": null,
    "lon": null,
    "display_name": null,
    "query": "Panevėžio aplinkl. 5, Šilagalio k., Lietuva",
    "geocode_updated_at": null,
    "status": "unresolved"
  },
  {
    "station_id": "6c97a1e379258547",
    "lat": 55.7049578,
    "lon": 21.1635571,
    "display_name": "Baltic Petroleum, 1, Šilutės pl., Rumpiškės dvaras, Rumpiškė, Klaipėda, Klaipėdos miesto savivaldybė, Klaipėdos apskritis, 91109, Lietuva",
    "query": "Šilutės pl. 1, Klaipėda, Lietuva",
    "geocode_updated_at": "2026-04-09T06:35:21.563Z",
    "status": "resolved"
  },
  {
    "station_id": "6cc3fe60b1cdcf8a",
    "lat": 55.8982917,
    "lon": 21.8398638,
    "display_name": "Viada, 10, Žaltakalnio g., Plungė, Plungės miesto seniūnija, Plungės rajono savivaldybė, Telšių apskritis, 90143, Lietuva",
    "query": "Žaltakalnio g. 10, Plungė, Lietuva",
    "geocode_updated_at": "2026-04-09T06:45:57.862Z",
    "status": "resolved"
  },
  {
    "station_id": "6d36198f9ee42239",
    "lat": 55.594946,
    "lon": 26.4563923,
    "display_name": "Viada, 23B, Taikos pr., Visaginas, Visagino savivaldybė, Utenos apskritis, 31217, Lietuva",
    "query": "Taikos pr. 23B, Visaginas, Lietuva",
    "geocode_updated_at": "2026-04-09T06:47:14.162Z",
    "status": "resolved"
  },
  {
    "station_id": "6db6067b744e86cd",
    "lat": 54.8510876,
    "lon": 23.170468,
    "display_name": "Griškabūdis, Griškabūdžio seniūnija, Šakių rajono savivaldybė, Marijampolės apskritis, Lietuva",
    "query": "Griškabūdis, Lietuva",
    "geocode_updated_at": "2026-04-09T06:36:07.837Z",
    "status": "resolved"
  },
  {
    "station_id": "6ea747cb4d01cddf",
    "lat": 55.7283773,
    "lon": 24.3323377,
    "display_name": "Neste „IKI“, 81, Klaipėdos g., Panevėžys, Panevėžio miesto savivaldybė, Panevėžio apskritis, 37106, Lietuva",
    "query": "Klaipėdos g. 81, Panevėžys, Lietuva",
    "geocode_updated_at": "2026-04-09T06:42:01.584Z",
    "status": "resolved"
  },
  {
    "station_id": "6eb2582c137b828e",
    "lat": 54.8758023,
    "lon": 23.9120977,
    "display_name": "Rimi, 43, Europos pr., Aukštoji Freda, Aleksoto seniūnija, Kaunas, Kauno miesto savivaldybė, Kauno apskritis, 46329, Lietuva",
    "query": "Europos pr. 43, Kaunas, Lietuva",
    "geocode_updated_at": "2026-04-09T06:41:16.289Z",
    "status": "resolved"
  },
  {
    "station_id": "6ebfce453f112c97",
    "lat": 55.3703149,
    "lon": 23.1321196,
    "display_name": "Žerminalis, 3B, Vilniaus g., Raseiniai, Raseinių miesto seniūnija, Raseinių rajono savivaldybė, Kauno apskritis, 60186, Lietuva",
    "query": "Vilniaus g. 3B, Raseiniai, Lietuva",
    "geocode_updated_at": "2026-04-09T06:40:54.704Z",
    "status": "resolved"
  },